{
  "viewpoint": {
    "lat": 35.743772,
    "lon": 139.606821,
    "alt": 46.5,
    "name": "石神井公園駅付近"
  },
  "filter": {
    "az_range": [
      220.0,
      340.0
    ],
    "dist_max_km": 125.0,
    "elev_min_m": 1200.0
  },
  "mountains": [
    {
      "name": "神山",
      "lat": 35.233478,
      "lon": 139.020968,
      "elev": 1438,
      "azimuth": 223.37,
      "distance_km": 77.7,
      "angle_deg": 0.7227
    },
    {
      "name": "冠ヶ岳",
      "lat": 35.235275,
      "lon": 139.020509,
      "elev": 1409,
      "azimuth": 223.49,
      "distance_km": 77.5,
      "angle_deg": 0.7033
    },
    {
      "name": "金時山",
      "lat": 35.289943,
      "lon": 139.00472,
      "elev": 1213,
      "azimuth": 227.5,
      "distance_km": 74.3,
      "angle_deg": 0.6091
    },
    {
      "name": "三ノ塔",
      "lat": 35.436571,
      "lon": 139.191557,
      "elev": 1205,
      "azimuth": 227.95,
      "distance_km": 50.8,
      "angle_deg": 1.1085
    },
    {
      "name": "新大日",
      "lat": 35.451661,
      "lon": 139.176769,
      "elev": 1340,
      "azimuth": 230.38,
      "distance_km": 50.7,
      "angle_deg": 1.2637
    },
    {
      "name": "塔ノ岳",
      "lat": 35.45407,
      "lon": 139.163317,
      "elev": 1491,
      "azimuth": 231.48,
      "distance_km": 51.5,
      "angle_deg": 1.4066
    },
    {
      "name": "位牌岳",
      "lat": 35.223777,
      "lon": 138.809984,
      "elev": 1458,
      "azimuth": 231.65,
      "distance_km": 92.5,
      "angle_deg": 0.512
    },
    {
      "name": "前岳",
      "lat": 35.229953,
      "lon": 138.818827,
      "elev": 1336,
      "azimuth": 231.67,
      "distance_km": 91.4,
      "angle_deg": 0.4502
    },
    {
      "name": "鍋割山",
      "lat": 35.443853,
      "lon": 139.141529,
      "elev": 1273,
      "azimuth": 231.86,
      "distance_km": 53.7,
      "angle_deg": 1.098
    },
    {
      "name": "鋸岳",
      "lat": 35.228021,
      "lon": 138.799518,
      "elev": 1296,
      "azimuth": 232.24,
      "distance_km": 93.0,
      "angle_deg": 0.4065
    },
    {
      "name": "呼子岳",
      "lat": 35.226947,
      "lon": 138.796213,
      "elev": 1310,
      "azimuth": 232.3,
      "distance_km": 93.3,
      "angle_deg": 0.4113
    },
    {
      "name": "越前岳",
      "lat": 35.238066,
      "lon": 138.794001,
      "elev": 1504,
      "azimuth": 232.98,
      "distance_km": 92.7,
      "angle_deg": 0.5387
    },
    {
      "name": "丹沢山",
      "lat": 35.474362,
      "lon": 139.162692,
      "elev": 1567,
      "azimuth": 233.52,
      "distance_km": 50.1,
      "angle_deg": 1.5414
    },
    {
      "name": "西峰",
      "lat": 35.486827,
      "lon": 139.170631,
      "elev": 1352,
      "azimuth": 234.32,
      "distance_km": 48.7,
      "angle_deg": 1.3442
    },
    {
      "name": "中峰",
      "lat": 35.490005,
      "lon": 139.175507,
      "elev": 1360,
      "azimuth": 234.35,
      "distance_km": 48.2,
      "angle_deg": 1.3739
    },
    {
      "name": "東峰",
      "lat": 35.494411,
      "lon": 139.181038,
      "elev": 1345,
      "azimuth": 234.47,
      "distance_km": 47.5,
      "angle_deg": 1.3813
    },
    {
      "name": "臼ヶ岳",
      "lat": 35.476655,
      "lon": 139.126545,
      "elev": 1460,
      "azimuth": 235.88,
      "distance_km": 52.6,
      "angle_deg": 1.332
    },
    {
      "name": "蛭ヶ岳",
      "lat": 35.486231,
      "lon": 139.138801,
      "elev": 1673,
      "azimuth": 236.16,
      "distance_km": 51.1,
      "angle_deg": 1.6221
    },
    {
      "name": "鑵子山",
      "lat": 35.288649,
      "lon": 138.782663,
      "elev": 1306,
      "azimuth": 236.2,
      "distance_km": 90.2,
      "angle_deg": 0.4469
    },
    {
      "name": "ミカゲ沢ノ頭",
      "lat": 35.484587,
      "lon": 139.130114,
      "elev": 1421,
      "azimuth": 236.48,
      "distance_km": 51.9,
      "angle_deg": 1.3145
    },
    {
      "name": "馬ノ頭",
      "lat": 35.319123,
      "lon": 138.806394,
      "elev": 1221,
      "azimuth": 237.25,
      "distance_km": 86.5,
      "angle_deg": 0.439
    },
    {
      "name": "片蓋山",
      "lat": 35.305223,
      "lon": 138.776118,
      "elev": 1488,
      "azimuth": 237.39,
      "distance_km": 89.7,
      "angle_deg": 0.57
    },
    {
      "name": "檜洞丸",
      "lat": 35.478997,
      "lon": 139.102758,
      "elev": 1601,
      "azimuth": 237.4,
      "distance_km": 54.3,
      "angle_deg": 1.4275
    },
    {
      "name": "腰切塚",
      "lat": 35.3046,
      "lon": 138.767803,
      "elev": 1496,
      "azimuth": 237.61,
      "distance_km": 90.4,
      "angle_deg": 0.5656
    },
    {
      "name": "赤塚",
      "lat": 35.322752,
      "lon": 138.799789,
      "elev": 1371,
      "azimuth": 237.69,
      "distance_km": 86.8,
      "angle_deg": 0.5343
    },
    {
      "name": "浅黄塚",
      "lat": 35.307738,
      "lon": 138.758741,
      "elev": 1577,
      "azimuth": 238.08,
      "distance_km": 90.9,
      "angle_deg": 0.6095
    },
    {
      "name": "姫次",
      "lat": 35.510702,
      "lon": 139.134161,
      "elev": 1433,
      "azimuth": 239.01,
      "distance_km": 50.0,
      "angle_deg": 1.3922
    },
    {
      "name": "二ッ塚",
      "lat": 35.334733,
      "lon": 138.772357,
      "elev": 1929,
      "azimuth": 239.29,
      "distance_km": 88.2,
      "angle_deg": 0.8771
    },
    {
      "name": "袖平山",
      "lat": 35.510832,
      "lon": 139.12619,
      "elev": 1432,
      "azimuth": 239.45,
      "distance_km": 50.6,
      "angle_deg": 1.3693
    },
    {
      "name": "黍殻山",
      "lat": 35.526391,
      "lon": 139.149036,
      "elev": 1273,
      "azimuth": 239.95,
      "distance_km": 48.0,
      "angle_deg": 1.2769
    },
    {
      "name": "宝永山",
      "lat": 35.342939,
      "lon": 138.752078,
      "elev": 2693,
      "azimuth": 240.4,
      "distance_km": 89.4,
      "angle_deg": 1.347
    },
    {
      "name": "畦ヶ丸山",
      "lat": 35.478016,
      "lon": 139.032184,
      "elev": 1293,
      "azimuth": 240.64,
      "distance_km": 59.8,
      "angle_deg": 0.9591
    },
    {
      "name": "大界木山",
      "lat": 35.47932,
      "lon": 139.016693,
      "elev": 1246,
      "azimuth": 241.42,
      "distance_km": 61.0,
      "angle_deg": 0.8882
    },
    {
      "name": "小富士",
      "lat": 35.373507,
      "lon": 138.779162,
      "elev": 1906,
      "azimuth": 241.54,
      "distance_km": 85.5,
      "angle_deg": 0.9103
    },
    {
      "name": "菰釣山",
      "lat": 35.463816,
      "lon": 138.978431,
      "elev": 1379,
      "azimuth": 241.57,
      "distance_km": 64.9,
      "angle_deg": 0.9233
    },
    {
      "name": "中ノ丸",
      "lat": 35.473962,
      "lon": 138.994326,
      "elev": 1280,
      "azimuth": 241.84,
      "distance_km": 63.1,
      "angle_deg": 0.8741
    },
    {
      "name": "岩保土山",
      "lat": 35.45455,
      "lon": 138.947606,
      "elev": 1297,
      "azimuth": 241.95,
      "distance_km": 67.8,
      "angle_deg": 0.7915
    },
    {
      "name": "駒ヶ岳",
      "lat": 35.359465,
      "lon": 138.731431,
      "elev": 3718,
      "azimuth": 242.01,
      "distance_km": 90.1,
      "angle_deg": 1.9815
    },
    {
      "name": "朝日岳",
      "lat": 35.360692,
      "lon": 138.733072,
      "elev": 3733,
      "azimuth": 242.04,
      "distance_km": 89.9,
      "angle_deg": 1.9969
    },
    {
      "name": "浅間岳",
      "lat": 35.360064,
      "lon": 138.731549,
      "elev": 3722,
      "azimuth": 242.04,
      "distance_km": 90.1,
      "angle_deg": 1.9853
    },
    {
      "name": "三島岳",
      "lat": 35.359467,
      "lon": 138.730213,
      "elev": 3734,
      "azimuth": 242.04,
      "distance_km": 90.2,
      "angle_deg": 1.9887
    },
    {
      "name": "油沢ノ頭",
      "lat": 35.463739,
      "lon": 138.965856,
      "elev": 1310,
      "azimuth": 242.04,
      "distance_km": 65.9,
      "angle_deg": 0.8413
    },
    {
      "name": "伊豆岳",
      "lat": 35.362754,
      "lon": 138.733244,
      "elev": 3749,
      "azimuth": 242.16,
      "distance_km": 89.8,
      "angle_deg": 2.0108
    },
    {
      "name": "剣ヶ峰",
      "lat": 35.360681,
      "lon": 138.727351,
      "elev": 3776,
      "azimuth": 242.2,
      "distance_km": 90.4,
      "angle_deg": 2.0106
    },
    {
      "name": "大室山",
      "lat": 35.510958,
      "lon": 139.068526,
      "elev": 1587,
      "azimuth": 242.24,
      "distance_km": 55.2,
      "angle_deg": 1.3838
    },
    {
      "name": "成就岳",
      "lat": 35.36427,
      "lon": 138.733512,
      "elev": 3734,
      "azimuth": 242.25,
      "distance_km": 89.7,
      "angle_deg": 2.0043
    },
    {
      "name": "久須志岳",
      "lat": 35.365783,
      "lon": 138.732279,
      "elev": 3725,
      "azimuth": 242.38,
      "distance_km": 89.7,
      "angle_deg": 1.9979
    },
    {
      "name": "白山岳",
      "lat": 35.366569,
      "lon": 138.729543,
      "elev": 3756,
      "azimuth": 242.5,
      "distance_km": 89.9,
      "angle_deg": 2.0123
    },
    {
      "name": "平尾山",
      "lat": 35.442386,
      "lon": 138.893173,
      "elev": 1318,
      "azimuth": 242.87,
      "distance_km": 72.8,
      "angle_deg": 0.7157
    },
    {
      "name": "奥ノ岳",
      "lat": 35.459198,
      "lon": 138.926338,
      "elev": 1371,
      "azimuth": 243.08,
      "distance_km": 69.3,
      "angle_deg": 0.8244
    },
    {
      "name": "加入道山",
      "lat": 35.509763,
      "lon": 139.046253,
      "elev": 1418,
      "azimuth": 243.08,
      "distance_km": 57.0,
      "angle_deg": 1.1547
    },
    {
      "name": "篠井山",
      "lat": 35.247715,
      "lon": 138.42646,
      "elev": 1394,
      "azimuth": 243.15,
      "distance_km": 120.4,
      "angle_deg": 0.1701
    },
    {
      "name": "石割山",
      "lat": 35.450491,
      "lon": 138.901359,
      "elev": 1413,
      "azimuth": 243.23,
      "distance_km": 71.7,
      "angle_deg": 0.8108
    },
    {
      "name": "鳥ノ胸山",
      "lat": 35.49871,
      "lon": 139.006585,
      "elev": 1208,
      "azimuth": 243.61,
      "distance_km": 60.8,
      "angle_deg": 0.8563
    },
    {
      "name": "下十枚山",
      "lat": 35.243516,
      "lon": 138.385844,
      "elev": 1732,
      "azimuth": 243.75,
      "distance_km": 123.9,
      "angle_deg": 0.2946
    },
    {
      "name": "中ノ岳",
      "lat": 35.470151,
      "lon": 138.928341,
      "elev": 1411,
      "azimuth": 243.92,
      "distance_km": 68.6,
      "angle_deg": 0.872
    },
    {
      "name": "十枚山",
      "lat": 35.253636,
      "lon": 138.377955,
      "elev": 1726,
      "azimuth": 244.36,
      "distance_km": 124.0,
      "angle_deg": 0.2904
    },
    {
      "name": "前ノ岳",
      "lat": 35.478705,
      "lon": 138.929276,
      "elev": 1471,
      "azimuth": 244.6,
      "distance_km": 68.1,
      "angle_deg": 0.9327
    },
    {
      "name": "天子ヶ岳",
      "lat": 35.329074,
      "lon": 138.53671,
      "elev": 1330,
      "azimuth": 244.95,
      "distance_km": 107.4,
      "angle_deg": 0.2646
    },
    {
      "name": "御正体山",
      "lat": 35.486904,
      "lon": 138.931697,
      "elev": 1682,
      "azimuth": 245.21,
      "distance_km": 67.5,
      "angle_deg": 1.1245
    },
    {
      "name": "長者ヶ岳",
      "lat": 35.341246,
      "lon": 138.534695,
      "elev": 1336,
      "azimuth": 245.64,
      "distance_km": 107.0,
      "angle_deg": 0.272
    },
    {
      "name": "大光山",
      "lat": 35.280495,
      "lon": 138.366711,
      "elev": 1661,
      "azimuth": 245.81,
      "distance_km": 123.7,
      "angle_deg": 0.2642
    },
    {
      "name": "菜畑山",
      "lat": 35.528307,
      "lon": 139.006172,
      "elev": 1283,
      "azimuth": 246.45,
      "distance_km": 59.4,
      "angle_deg": 0.9596
    },
    {
      "name": "高座山",
      "lat": 35.47562,
      "lon": 138.854578,
      "elev": 1304,
      "azimuth": 246.64,
      "distance_km": 74.4,
      "angle_deg": 0.6782
    },
    {
      "name": "今倉山・東峰",
      "lat": 35.521316,
      "lon": 138.974393,
      "elev": 1470,
      "azimuth": 246.88,
      "distance_km": 62.4,
      "angle_deg": 1.0637
    },
    {
      "name": "鹿留山",
      "lat": 35.487979,
      "lon": 138.8784,
      "elev": 1632,
      "azimuth": 246.94,
      "distance_km": 71.8,
      "angle_deg": 0.9834
    },
    {
      "name": "杓子山",
      "lat": 35.485213,
      "lon": 138.86621,
      "elev": 1598,
      "azimuth": 247.07,
      "distance_km": 73.0,
      "angle_deg": 0.9323
    },
    {
      "name": "弓射山",
      "lat": 35.421794,
      "lon": 138.682633,
      "elev": 1566,
      "azimuth": 247.17,
      "distance_km": 91.1,
      "angle_deg": 0.5998
    },
    {
      "name": "松山（赤岩）",
      "lat": 35.522058,
      "lon": 138.962836,
      "elev": 1410,
      "azimuth": 247.32,
      "distance_km": 63.3,
      "angle_deg": 0.9863
    },
    {
      "name": "赤鞍ヶ岳",
      "lat": 35.544405,
      "lon": 139.024814,
      "elev": 1299,
      "azimuth": 247.4,
      "distance_km": 57.2,
      "angle_deg": 1.0317
    },
    {
      "name": "伊賀殿山",
      "lat": 35.431582,
      "lon": 138.686471,
      "elev": 1485,
      "azimuth": 247.72,
      "distance_km": 90.3,
      "angle_deg": 0.5592
    },
    {
      "name": "長尾山",
      "lat": 35.436023,
      "lon": 138.677148,
      "elev": 1424,
      "azimuth": 248.21,
      "distance_km": 90.9,
      "angle_deg": 0.5125
    },
    {
      "name": "五宗山",
      "lat": 35.381288,
      "lon": 138.512575,
      "elev": 1634,
      "azimuth": 248.25,
      "distance_km": 107.0,
      "angle_deg": 0.4308
    },
    {
      "name": "二十六夜山",
      "lat": 35.527629,
      "lon": 138.946846,
      "elev": 1297,
      "azimuth": 248.33,
      "distance_km": 64.4,
      "angle_deg": 0.8606
    },
    {
      "name": "八紘嶺",
      "lat": 35.326534,
      "lon": 138.335649,
      "elev": 1918,
      "azimuth": 248.49,
      "distance_km": 124.2,
      "angle_deg": 0.3772
    },
    {
      "name": "倉見山",
      "lat": 35.507955,
      "lon": 138.855716,
      "elev": 1256,
      "azimuth": 249.19,
      "distance_km": 72.9,
      "angle_deg": 0.6656
    },
    {
      "name": "毛無山",
      "lat": 35.415806,
      "lon": 138.543871,
      "elev": 1964,
      "azimuth": 249.62,
      "distance_km": 103.0,
      "angle_deg": 0.6639
    },
    {
      "name": "希望峰",
      "lat": 35.363684,
      "lon": 138.349451,
      "elev": 1980,
      "azimuth": 250.07,
      "distance_km": 121.6,
      "angle_deg": 0.4359
    },
    {
      "name": "大ガレの頭",
      "lat": 35.420452,
      "lon": 138.530155,
      "elev": 1904,
      "azimuth": 250.13,
      "distance_km": 104.0,
      "angle_deg": 0.6169
    },
    {
      "name": "七面山",
      "lat": 35.370453,
      "lon": 138.350505,
      "elev": 1989,
      "azimuth": 250.38,
      "distance_km": 121.2,
      "angle_deg": 0.4441
    },
    {
      "name": "雨ヶ岳",
      "lat": 35.433947,
      "lon": 138.558789,
      "elev": 1772,
      "azimuth": 250.41,
      "distance_km": 101.0,
      "angle_deg": 0.5833
    },
    {
      "name": "五老峰",
      "lat": 35.42212,
      "lon": 138.509936,
      "elev": 1619,
      "azimuth": 250.57,
      "distance_km": 105.6,
      "angle_deg": 0.4396
    },
    {
      "name": "竜ケ岳",
      "lat": 35.446642,
      "lon": 138.583666,
      "elev": 1485,
      "azimuth": 250.73,
      "distance_km": 98.4,
      "angle_deg": 0.4526
    },
    {
      "name": "桑木山",
      "lat": 35.438569,
      "lon": 138.519974,
      "elev": 1470,
      "azimuth": 251.34,
      "distance_km": 104.2,
      "angle_deg": 0.3755
    },
    {
      "name": "紅葉台",
      "lat": 35.487301,
      "lon": 138.683038,
      "elev": 1202,
      "azimuth": 251.49,
      "distance_km": 88.4,
      "angle_deg": 0.4031
    },
    {
      "name": "霜山",
      "lat": 35.521864,
      "lon": 138.798397,
      "elev": 1302,
      "azimuth": 251.65,
      "distance_km": 77.3,
      "angle_deg": 0.6287
    },
    {
      "name": "烏帽子岳",
      "lat": 35.477444,
      "lon": 138.600854,
      "elev": 1257,
      "azimuth": 252.33,
      "distance_km": 95.8,
      "angle_deg": 0.3492
    },
    {
      "name": "西精山",
      "lat": 35.494729,
      "lon": 138.620288,
      "elev": 1292,
      "azimuth": 253.11,
      "distance_km": 93.5,
      "angle_deg": 0.3969
    },
    {
      "name": "大金山",
      "lat": 35.423412,
      "lon": 138.315554,
      "elev": 1310,
      "azimuth": 253.48,
      "distance_km": 122.3,
      "angle_deg": 0.1134
    },
    {
      "name": "十二ヶ岳",
      "lat": 35.519658,
      "lon": 138.691394,
      "elev": 1683,
      "azimuth": 253.57,
      "distance_km": 86.6,
      "angle_deg": 0.7446
    },
    {
      "name": "三ツ峠山",
      "lat": 35.549165,
      "lon": 138.809164,
      "elev": 1785,
      "azimuth": 253.59,
      "distance_km": 75.4,
      "angle_deg": 1.0261
    },
    {
      "name": "五湖山",
      "lat": 35.502119,
      "lon": 138.619219,
      "elev": 1340,
      "azimuth": 253.61,
      "distance_km": 93.4,
      "angle_deg": 0.4281
    },
    {
      "name": "鬼ヶ岳",
      "lat": 35.51976,
      "lon": 138.676643,
      "elev": 1738,
      "azimuth": 253.84,
      "distance_km": 87.8,
      "angle_deg": 0.7596
    },
    {
      "name": "王岳",
      "lat": 35.513157,
      "lon": 138.644574,
      "elev": 1623,
      "azimuth": 253.92,
      "distance_km": 90.8,
      "angle_deg": 0.6391
    },
    {
      "name": "鍵掛",
      "lat": 35.51692,
      "lon": 138.657935,
      "elev": 1589,
      "azimuth": 253.95,
      "distance_km": 89.6,
      "angle_deg": 0.6364
    },
    {
      "name": "御巣鷹山",
      "lat": 35.553855,
      "lon": 138.807905,
      "elev": 1775,
      "azimuth": 254.0,
      "distance_km": 75.4,
      "angle_deg": 1.0193
    },
    {
      "name": "吉沢山",
      "lat": 35.515474,
      "lon": 138.648679,
      "elev": 1597,
      "azimuth": 254.01,
      "distance_km": 90.4,
      "angle_deg": 0.6289
    },
    {
      "name": "金山",
      "lat": 35.523881,
      "lon": 138.682973,
      "elev": 1686,
      "azimuth": 254.02,
      "distance_km": 87.2,
      "angle_deg": 0.7367
    },
    {
      "name": "三方分山",
      "lat": 35.504841,
      "lon": 138.602537,
      "elev": 1422,
      "azimuth": 254.05,
      "distance_km": 94.8,
      "angle_deg": 0.461
    },
    {
      "name": "横沢ノ頭",
      "lat": 35.513443,
      "lon": 138.636795,
      "elev": 1465,
      "azimuth": 254.07,
      "distance_km": 91.5,
      "angle_deg": 0.5301
    },
    {
      "name": "節刀ヶ岳",
      "lat": 35.528476,
      "lon": 138.683459,
      "elev": 1736,
      "azimuth": 254.33,
      "distance_km": 87.0,
      "angle_deg": 0.7726
    },
    {
      "name": "金堀山",
      "lat": 35.533873,
      "lon": 138.694356,
      "elev": 1606,
      "azimuth": 254.53,
      "distance_km": 85.9,
      "angle_deg": 0.7047
    },
    {
      "name": "不逢山",
      "lat": 35.537056,
      "lon": 138.707069,
      "elev": 1562,
      "azimuth": 254.54,
      "distance_km": 84.7,
      "angle_deg": 0.6945
    },
    {
      "name": "中藤山",
      "lat": 35.541323,
      "lon": 138.721918,
      "elev": 1665,
      "azimuth": 254.6,
      "distance_km": 83.2,
      "angle_deg": 0.7885
    },
    {
      "name": "大幡山",
      "lat": 35.563844,
      "lon": 138.799994,
      "elev": 1531,
      "azimuth": 254.95,
      "distance_km": 75.7,
      "angle_deg": 0.8266
    },
    {
      "name": "御坂山",
      "lat": 35.558904,
      "lon": 138.772941,
      "elev": 1596,
      "azimuth": 255.05,
      "distance_km": 78.3,
      "angle_deg": 0.8284
    },
    {
      "name": "富士見山",
      "lat": 35.470627,
      "lon": 138.381054,
      "elev": 1640,
      "azimuth": 255.09,
      "distance_km": 115.1,
      "angle_deg": 0.3427
    },
    {
      "name": "八丁山",
      "lat": 35.568322,
      "lon": 138.792914,
      "elev": 1580,
      "azimuth": 255.44,
      "distance_km": 76.2,
      "angle_deg": 0.8543
    },
    {
      "name": "清八山",
      "lat": 35.572982,
      "lon": 138.79971,
      "elev": 1593,
      "azimuth": 255.7,
      "distance_km": 75.5,
      "angle_deg": 0.8782
    },
    {
      "name": "鶴ヶ鳥屋山",
      "lat": 35.582064,
      "lon": 138.841327,
      "elev": 1374,
      "azimuth": 255.71,
      "distance_km": 71.6,
      "angle_deg": 0.7825
    },
    {
      "name": "本社ヶ丸",
      "lat": 35.574824,
      "lon": 138.807328,
      "elev": 1631,
      "azimuth": 255.72,
      "distance_km": 74.8,
      "angle_deg": 0.9212
    },
    {
      "name": "蛾ヶ岳",
      "lat": 35.519068,
      "lon": 138.535889,
      "elev": 1279,
      "azimuth": 255.9,
      "distance_km": 100.2,
      "angle_deg": 0.3132
    },
    {
      "name": "御殿山",
      "lat": 35.488073,
      "lon": 138.369904,
      "elev": 1670,
      "azimuth": 256.15,
      "distance_km": 115.6,
      "angle_deg": 0.3527
    },
    {
      "name": "釈迦ヶ岳",
      "lat": 35.562919,
      "lon": 138.720951,
      "elev": 1641,
      "azimuth": 256.21,
      "distance_km": 82.7,
      "angle_deg": 0.7812
    },
    {
      "name": "府駒山",
      "lat": 35.564799,
      "lon": 138.73019,
      "elev": 1562,
      "azimuth": 256.21,
      "distance_km": 81.8,
      "angle_deg": 0.7412
    },
    {
      "name": "神座山",
      "lat": 35.56361,
      "lon": 138.703051,
      "elev": 1474,
      "azimuth": 256.54,
      "distance_km": 84.2,
      "angle_deg": 0.6415
    },
    {
      "name": "千畳敷",
      "lat": 35.548174,
      "lon": 138.615654,
      "elev": 1246,
      "azimuth": 256.7,
      "distance_km": 92.4,
      "angle_deg": 0.3829
    },
    {
      "name": "名所山",
      "lat": 35.56204,
      "lon": 138.652551,
      "elev": 1236,
      "azimuth": 257.14,
      "distance_km": 88.7,
      "angle_deg": 0.4209
    },
    {
      "name": "滝戸山",
      "lat": 35.55699,
      "lon": 138.624241,
      "elev": 1221,
      "azimuth": 257.18,
      "distance_km": 91.4,
      "angle_deg": 0.3789
    },
    {
      "name": "ボッコノ頭",
      "lat": 35.586704,
      "lon": 138.77214,
      "elev": 1446,
      "azimuth": 257.26,
      "distance_km": 77.6,
      "angle_deg": 0.7304
    },
    {
      "name": "春日沢の頭",
      "lat": 35.568946,
      "lon": 138.663393,
      "elev": 1235,
      "azimuth": 257.48,
      "distance_km": 87.6,
      "angle_deg": 0.4347
    },
    {
      "name": "大栃山",
      "lat": 35.580873,
      "lon": 138.699861,
      "elev": 1415,
      "azimuth": 257.85,
      "distance_km": 84.1,
      "angle_deg": 0.6035
    },
    {
      "name": "別当代山",
      "lat": 35.511117,
      "lon": 138.282803,
      "elev": 2216,
      "azimuth": 258.24,
      "distance_km": 122.7,
      "angle_deg": 0.533
    },
    {
      "name": "西別当代山",
      "lat": 35.514026,
      "lon": 138.27112,
      "elev": 2226,
      "azimuth": 258.49,
      "distance_km": 123.6,
      "angle_deg": 0.5262
    },
    {
      "name": "柳平",
      "lat": 35.605966,
      "lon": 138.756862,
      "elev": 1470,
      "azimuth": 259.01,
      "distance_km": 78.5,
      "angle_deg": 0.7327
    },
    {
      "name": "八町山",
      "lat": 35.549043,
      "lon": 138.394079,
      "elev": 1522,
      "azimuth": 259.22,
      "distance_km": 111.9,
      "angle_deg": 0.3174
    },
    {
      "name": "源氏山",
      "lat": 35.546505,
      "lon": 138.364873,
      "elev": 1827,
      "azimuth": 259.35,
      "distance_km": 114.6,
      "angle_deg": 0.442
    },
    {
      "name": "笹子雁ヶ腹摺山",
      "lat": 35.617583,
      "lon": 138.793809,
      "elev": 1358,
      "azimuth": 259.47,
      "distance_km": 74.9,
      "angle_deg": 0.7097
    },
    {
      "name": "浜立山",
      "lat": 35.627428,
      "lon": 138.842914,
      "elev": 1482,
      "azimuth": 259.65,
      "distance_km": 70.3,
      "angle_deg": 0.894
    },
    {
      "name": "大峠山",
      "lat": 35.55299,
      "lon": 138.362571,
      "elev": 1908,
      "azimuth": 259.72,
      "distance_km": 114.7,
      "angle_deg": 0.4818
    },
    {
      "name": "滝子山",
      "lat": 35.630354,
      "lon": 138.851172,
      "elev": 1620,
      "azimuth": 259.8,
      "distance_km": 69.5,
      "angle_deg": 1.0241
    },
    {
      "name": "米沢山",
      "lat": 35.623406,
      "lon": 138.803338,
      "elev": 1357,
      "azimuth": 259.83,
      "distance_km": 73.9,
      "angle_deg": 0.726
    },
    {
      "name": "オッ立",
      "lat": 35.628924,
      "lon": 138.829876,
      "elev": 1301,
      "azimuth": 259.96,
      "distance_km": 71.5,
      "angle_deg": 0.726
    },
    {
      "name": "大鹿山",
      "lat": 35.630497,
      "lon": 138.82293,
      "elev": 1236,
      "azimuth": 260.18,
      "distance_km": 72.1,
      "angle_deg": 0.6639
    },
    {
      "name": "コンドウ丸",
      "lat": 35.635758,
      "lon": 138.835042,
      "elev": 1392,
      "azimuth": 260.49,
      "distance_km": 70.9,
      "angle_deg": 0.8103
    },
    {
      "name": "白剥山",
      "lat": 35.552764,
      "lon": 138.259609,
      "elev": 2238,
      "azimuth": 260.54,
      "distance_km": 123.8,
      "angle_deg": 0.5294
    },
    {
      "name": "権現山",
      "lat": 35.667901,
      "lon": 139.021446,
      "elev": 1312,
      "azimuth": 261.14,
      "distance_km": 53.6,
      "angle_deg": 1.1417
    },
    {
      "name": "大谷ヶ丸",
      "lat": 35.64456,
      "lon": 138.846118,
      "elev": 1644,
      "azimuth": 261.14,
      "distance_km": 69.7,
      "angle_deg": 1.0397
    },
    {
      "name": "黒河内岳　南峰",
      "lat": 35.569893,
      "lon": 138.245739,
      "elev": 2718,
      "azimuth": 261.5,
      "distance_km": 124.7,
      "angle_deg": 0.739
    },
    {
      "name": "奥千重",
      "lat": 35.586703,
      "lon": 138.369217,
      "elev": 2052,
      "azimuth": 261.52,
      "distance_km": 113.4,
      "angle_deg": 0.5697
    },
    {
      "name": "黒河内岳　北峰",
      "lat": 35.571065,
      "lon": 138.243979,
      "elev": 2733,
      "azimuth": 261.57,
      "distance_km": 124.9,
      "angle_deg": 0.7439
    },
    {
      "name": "櫛形山",
      "lat": 35.590967,
      "lon": 138.370665,
      "elev": 2052,
      "azimuth": 261.75,
      "distance_km": 113.2,
      "angle_deg": 0.5722
    },
    {
      "name": "森山",
      "lat": 35.582553,
      "lon": 138.293462,
      "elev": 1468,
      "azimuth": 261.83,
      "distance_km": 120.3,
      "angle_deg": 0.2067
    },
    {
      "name": "麻生山",
      "lat": 35.671213,
      "lon": 138.999341,
      "elev": 1268,
      "azimuth": 261.85,
      "distance_km": 55.6,
      "angle_deg": 1.0417
    },
    {
      "name": "高山",
      "lat": 35.587621,
      "lon": 138.32729,
      "elev": 1802,
      "azimuth": 261.87,
      "distance_km": 117.1,
      "angle_deg": 0.4001
    },
    {
      "name": "裸山",
      "lat": 35.600414,
      "lon": 138.369374,
      "elev": 2003,
      "azimuth": 262.28,
      "distance_km": 113.2,
      "angle_deg": 0.548
    },
    {
      "name": "北峰",
      "lat": 35.674987,
      "lon": 138.992493,
      "elev": 1202,
      "azimuth": 262.36,
      "distance_km": 56.1,
      "angle_deg": 0.9602
    },
    {
      "name": "ハマイバ丸",
      "lat": 35.661748,
      "lon": 138.849577,
      "elev": 1752,
      "azimuth": 262.66,
      "distance_km": 69.1,
      "angle_deg": 1.1429
    },
    {
      "name": "大籠岳",
      "lat": 35.593051,
      "lon": 138.243387,
      "elev": 2767,
      "azimuth": 262.68,
      "distance_km": 124.6,
      "angle_deg": 0.7641
    },
    {
      "name": "唐松岳",
      "lat": 35.612518,
      "lon": 138.376535,
      "elev": 1856,
      "azimuth": 262.91,
      "distance_km": 112.3,
      "angle_deg": 0.4838
    },
    {
      "name": "大蔵高丸",
      "lat": 35.672814,
      "lon": 138.846818,
      "elev": 1781,
      "azimuth": 263.69,
      "distance_km": 69.2,
      "angle_deg": 1.1646
    },
    {
      "name": "姥子山",
      "lat": 35.678897,
      "lon": 138.896511,
      "elev": 1503,
      "azimuth": 263.82,
      "distance_km": 64.7,
      "angle_deg": 1.0371
    },
    {
      "name": "大唐松山",
      "lat": 35.621591,
      "lon": 138.269441,
      "elev": 2561,
      "azimuth": 264.0,
      "distance_km": 121.8,
      "angle_deg": 0.706
    },
    {
      "name": "農鳥岳",
      "lat": 35.62118,
      "lon": 138.236865,
      "elev": 3025,
      "azimuth": 264.14,
      "distance_km": 124.8,
      "angle_deg": 0.8798
    },
    {
      "name": "高谷山",
      "lat": 35.631787,
      "lon": 138.33353,
      "elev": 1842,
      "azimuth": 264.22,
      "distance_km": 115.9,
      "angle_deg": 0.434
    },
    {
      "name": "白谷小丸",
      "lat": 35.683054,
      "lon": 138.858699,
      "elev": 1890,
      "azimuth": 264.54,
      "distance_km": 68.0,
      "angle_deg": 1.2862
    },
    {
      "name": "棚横手山",
      "lat": 35.676825,
      "lon": 138.77746,
      "elev": 1306,
      "azimuth": 264.59,
      "distance_km": 75.4,
      "angle_deg": 0.6619
    },
    {
      "name": "白谷ノ丸",
      "lat": 35.684473,
      "lon": 138.858074,
      "elev": 1920,
      "azimuth": 264.67,
      "distance_km": 68.1,
      "angle_deg": 1.3104
    },
    {
      "name": "雁ヶ腹摺山",
      "lat": 35.686791,
      "lon": 138.884806,
      "elev": 1874,
      "azimuth": 264.68,
      "distance_km": 65.6,
      "angle_deg": 1.3382
    },
    {
      "name": "大峰",
      "lat": 35.691731,
      "lon": 138.935611,
      "elev": 1403,
      "azimuth": 264.77,
      "distance_km": 61.0,
      "angle_deg": 1.0352
    },
    {
      "name": "赤岩ノ丸",
      "lat": 35.686702,
      "lon": 138.87003,
      "elev": 1792,
      "azimuth": 264.79,
      "distance_km": 67.0,
      "angle_deg": 1.2312
    },
    {
      "name": "大滝山",
      "lat": 35.681043,
      "lon": 138.781392,
      "elev": 1362,
      "azimuth": 264.92,
      "distance_km": 75.0,
      "angle_deg": 0.7112
    },
    {
      "name": "黒岳",
      "lat": 35.688555,
      "lon": 138.859784,
      "elev": 1988,
      "azimuth": 265.04,
      "distance_km": 67.9,
      "angle_deg": 1.3728
    },
    {
      "name": "大崖頭山",
      "lat": 35.653142,
      "lon": 138.337596,
      "elev": 2186,
      "azimuth": 265.37,
      "distance_km": 115.3,
      "angle_deg": 0.6122
    },
    {
      "name": "大樺ノ頭",
      "lat": 35.694833,
      "lon": 138.893055,
      "elev": 1777,
      "azimuth": 265.4,
      "distance_km": 64.8,
      "angle_deg": 1.2758
    },
    {
      "name": "源次郎岳",
      "lat": 35.696741,
      "lon": 138.799199,
      "elev": 1477,
      "azimuth": 266.15,
      "distance_km": 73.3,
      "angle_deg": 0.8318
    },
    {
      "name": "城峰",
      "lat": 35.669145,
      "lon": 138.274843,
      "elev": 2372,
      "azimuth": 266.46,
      "distance_km": 120.8,
      "angle_deg": 0.6301
    },
    {
      "name": "千頭星山",
      "lat": 35.675691,
      "lon": 138.354305,
      "elev": 2139,
      "azimuth": 266.55,
      "distance_km": 113.6,
      "angle_deg": 0.6109
    },
    {
      "name": "牛奥ノ雁ヶ腹摺山",
      "lat": 35.705936,
      "lon": 138.856672,
      "elev": 1990,
      "azimuth": 266.68,
      "distance_km": 68.0,
      "angle_deg": 1.3713
    },
    {
      "name": "辻山",
      "lat": 35.676294,
      "lon": 138.321994,
      "elev": 2585,
      "azimuth": 266.69,
      "distance_km": 116.5,
      "angle_deg": 0.7924
    },
    {
      "name": "甘利山",
      "lat": 35.681144,
      "lon": 138.376586,
      "elev": 1731,
      "azimuth": 266.79,
      "distance_km": 111.5,
      "angle_deg": 0.4289
    },
    {
      "name": "北岳",
      "lat": 35.674321,
      "lon": 138.238808,
      "elev": 3193,
      "azimuth": 266.84,
      "distance_km": 124.0,
      "angle_deg": 0.9681
    },
    {
      "name": "大西峰",
      "lat": 35.683265,
      "lon": 138.356233,
      "elev": 2066,
      "azimuth": 266.97,
      "distance_km": 113.4,
      "angle_deg": 0.5772
    },
    {
      "name": "奥甘利山",
      "lat": 35.684262,
      "lon": 138.367889,
      "elev": 1843,
      "azimuth": 266.99,
      "distance_km": 112.3,
      "angle_deg": 0.4772
    },
    {
      "name": "白草ノ頭",
      "lat": 35.718225,
      "lon": 138.901831,
      "elev": 1326,
      "azimuth": 267.66,
      "distance_km": 63.8,
      "angle_deg": 0.8988
    },
    {
      "name": "小金沢山",
      "lat": 35.716955,
      "lon": 138.85662,
      "elev": 2014,
      "azimuth": 267.71,
      "distance_km": 67.9,
      "angle_deg": 1.3937
    },
    {
      "name": "奈良倉山",
      "lat": 35.721136,
      "lon": 138.96629,
      "elev": 1349,
      "azimuth": 267.71,
      "distance_km": 58.0,
      "angle_deg": 1.0595
    },
    {
      "name": "薬師ヶ岳",
      "lat": 35.695849,
      "lon": 138.31162,
      "elev": 2780,
      "azimuth": 267.78,
      "distance_km": 117.3,
      "angle_deg": 0.8761
    },
    {
      "name": "御所山",
      "lat": 35.69975,
      "lon": 138.361682,
      "elev": 1893,
      "azimuth": 267.88,
      "distance_km": 112.8,
      "angle_deg": 0.4969
    },
    {
      "name": "観音ヶ岳",
      "lat": 35.701739,
      "lon": 138.304756,
      "elev": 2841,
      "azimuth": 268.11,
      "distance_km": 117.9,
      "angle_deg": 0.8966
    },
    {
      "name": "小太郎山",
      "lat": 35.700819,
      "lon": 138.240001,
      "elev": 2725,
      "azimuth": 268.19,
      "distance_km": 123.8,
      "angle_deg": 0.756
    },
    {
      "name": "高嶺",
      "lat": 35.709799,
      "lon": 138.287686,
      "elev": 2779,
      "azimuth": 268.58,
      "distance_km": 119.4,
      "angle_deg": 0.844
    },
    {
      "name": "赤抜沢ノ頭",
      "lat": 35.710413,
      "lon": 138.29685,
      "elev": 2750,
      "azimuth": 268.59,
      "distance_km": 118.6,
      "angle_deg": 0.8424
    },
    {
      "name": "地蔵ヶ岳",
      "lat": 35.712091,
      "lon": 138.298714,
      "elev": 2764,
      "azimuth": 268.68,
      "distance_km": 118.4,
      "angle_deg": 0.8518
    },
    {
      "name": "赤薙沢ノ頭",
      "lat": 35.714535,
      "lon": 138.276849,
      "elev": 2553,
      "azimuth": 268.84,
      "distance_km": 120.4,
      "angle_deg": 0.7222
    },
    {
      "name": "燕頭山",
      "lat": 35.717272,
      "lon": 138.328954,
      "elev": 2105,
      "azimuth": 268.92,
      "distance_km": 115.6,
      "angle_deg": 0.5674
    },
    {
      "name": "大沢山",
      "lat": 35.733347,
      "lon": 139.014984,
      "elev": 1482,
      "azimuth": 268.94,
      "distance_km": 53.6,
      "angle_deg": 1.3262
    },
    {
      "name": "旭嶽",
      "lat": 35.720028,
      "lon": 138.332376,
      "elev": 1888,
      "azimuth": 269.06,
      "distance_km": 115.3,
      "angle_deg": 0.4637
    },
    {
      "name": "離山",
      "lat": 35.722754,
      "lon": 138.295791,
      "elev": 2307,
      "azimuth": 269.26,
      "distance_km": 118.6,
      "angle_deg": 0.6277
    },
    {
      "name": "三頭山 東峰",
      "lat": 35.738564,
      "lon": 139.014069,
      "elev": 1528,
      "azimuth": 269.56,
      "distance_km": 53.6,
      "angle_deg": 1.3725
    },
    {
      "name": "三頭山 西峰",
      "lat": 35.738937,
      "lon": 139.012231,
      "elev": 1527,
      "azimuth": 269.6,
      "distance_km": 53.8,
      "angle_deg": 1.3664
    },
    {
      "name": "三頭山 中央峰",
      "lat": 35.738961,
      "lon": 139.013825,
      "elev": 1531,
      "azimuth": 269.6,
      "distance_km": 53.6,
      "angle_deg": 1.3755
    },
    {
      "name": "アサヨ峰",
      "lat": 35.731723,
      "lon": 138.241307,
      "elev": 2799,
      "azimuth": 269.78,
      "distance_km": 123.5,
      "angle_deg": 0.7935
    },
    {
      "name": "帯那山",
      "lat": 35.737657,
      "lon": 138.594901,
      "elev": 1422,
      "azimuth": 269.87,
      "distance_km": 91.5,
      "angle_deg": 0.5031
    },
    {
      "name": "大マテイ山",
      "lat": 35.740939,
      "lon": 138.923782,
      "elev": 1409,
      "azimuth": 269.91,
      "distance_km": 61.8,
      "angle_deg": 1.0219
    },
    {
      "name": "栗沢山",
      "lat": 35.737935,
      "lon": 138.234245,
      "elev": 2714,
      "azimuth": 270.1,
      "distance_km": 124.2,
      "angle_deg": 0.7452
    },
    {
      "name": "大菩薩嶺",
      "lat": 35.748717,
      "lon": 138.84548,
      "elev": 2057,
      "azimuth": 270.68,
      "distance_km": 68.9,
      "angle_deg": 1.403
    },
    {
      "name": "摩利支天",
      "lat": 35.754522,
      "lon": 138.239295,
      "elev": 2820,
      "azimuth": 270.95,
      "distance_km": 123.7,
      "angle_deg": 0.8007
    },
    {
      "name": "水ヶ森",
      "lat": 35.758352,
      "lon": 138.604823,
      "elev": 1553,
      "azimuth": 271.32,
      "distance_km": 90.6,
      "angle_deg": 0.5978
    },
    {
      "name": "黒戸山",
      "lat": 35.769192,
      "lon": 138.261469,
      "elev": 2254,
      "azimuth": 271.72,
      "distance_km": 121.7,
      "angle_deg": 0.5631
    },
    {
      "name": "坊主山",
      "lat": 35.77163,
      "lon": 138.238467,
      "elev": 2365,
      "azimuth": 271.83,
      "distance_km": 123.8,
      "angle_deg": 0.5888
    },
    {
      "name": "前屏風ノ頭",
      "lat": 35.777159,
      "lon": 138.27217,
      "elev": 1881,
      "azimuth": 272.15,
      "distance_km": 120.8,
      "angle_deg": 0.398
    },
    {
      "name": "太刀岡山",
      "lat": 35.77571,
      "lon": 138.542476,
      "elev": 1322,
      "azimuth": 272.42,
      "distance_km": 96.3,
      "angle_deg": 0.3819
    },
    {
      "name": "サカリ山",
      "lat": 35.767495,
      "lon": 138.88813,
      "elev": 1542,
      "azimuth": 272.53,
      "distance_km": 65.1,
      "angle_deg": 1.0623
    },
    {
      "name": "中指山",
      "lat": 35.768944,
      "lon": 138.913901,
      "elev": 1315,
      "azimuth": 272.75,
      "distance_km": 62.7,
      "angle_deg": 0.9128
    },
    {
      "name": "鞍掛山",
      "lat": 35.790973,
      "lon": 138.254277,
      "elev": 2037,
      "azimuth": 272.85,
      "distance_km": 122.4,
      "angle_deg": 0.4527
    },
    {
      "name": "鈴庫山",
      "lat": 35.774811,
      "lon": 138.783623,
      "elev": 1600,
      "azimuth": 272.89,
      "distance_km": 74.5,
      "angle_deg": 0.9027
    },
    {
      "name": "大岩山",
      "lat": 35.794285,
      "lon": 138.231161,
      "elev": 2320,
      "azimuth": 272.98,
      "distance_km": 124.5,
      "angle_deg": 0.5588
    },
    {
      "name": "鹿倉山",
      "lat": 35.770329,
      "lon": 138.949763,
      "elev": 1288,
      "azimuth": 273.03,
      "distance_km": 59.5,
      "angle_deg": 0.9629
    },
    {
      "name": "小楢山",
      "lat": 35.781527,
      "lon": 138.664192,
      "elev": 1713,
      "azimuth": 273.09,
      "distance_km": 85.3,
      "angle_deg": 0.7846
    },
    {
      "name": "大岳山",
      "lat": 35.765196,
      "lon": 139.130365,
      "elev": 1266,
      "azimuth": 273.3,
      "distance_km": 43.2,
      "angle_deg": 1.4505
    },
    {
      "name": "大明神岳",
      "lat": 35.79137,
      "lon": 138.517595,
      "elev": 1550,
      "azimuth": 273.39,
      "distance_km": 98.6,
      "angle_deg": 0.4875
    },
    {
      "name": "日向山",
      "lat": 35.802374,
      "lon": 138.271351,
      "elev": 1660,
      "azimuth": 273.47,
      "distance_km": 120.9,
      "angle_deg": 0.2914
    },
    {
      "name": "鬼頬山",
      "lat": 35.791731,
      "lon": 138.550432,
      "elev": 1516,
      "azimuth": 273.5,
      "distance_km": 95.7,
      "angle_deg": 0.5057
    },
    {
      "name": "深田久弥終焉の地",
      "lat": 35.793559,
      "lon": 138.515752,
      "elev": 1579,
      "azimuth": 273.52,
      "distance_km": 98.8,
      "angle_deg": 0.5021
    },
    {
      "name": "茅ヶ岳",
      "lat": 35.795006,
      "lon": 138.513758,
      "elev": 1704,
      "azimuth": 273.61,
      "distance_km": 99.0,
      "angle_deg": 0.5719
    },
    {
      "name": "御前山",
      "lat": 35.77013,
      "lon": 139.080571,
      "elev": 1405,
      "azimuth": 273.67,
      "distance_km": 47.7,
      "angle_deg": 1.4455
    },
    {
      "name": "惣岳山",
      "lat": 35.772019,
      "lon": 139.07538,
      "elev": 1341,
      "azimuth": 273.89,
      "distance_km": 48.2,
      "angle_deg": 1.3512
    },
    {
      "name": "黒富士",
      "lat": 35.797748,
      "lon": 138.55325,
      "elev": 1633,
      "azimuth": 273.9,
      "distance_km": 95.5,
      "angle_deg": 0.5788
    },
    {
      "name": "金ヶ岳",
      "lat": 35.803172,
      "lon": 138.509362,
      "elev": 1764,
      "azimuth": 274.12,
      "distance_km": 99.5,
      "angle_deg": 0.6004
    },
    {
      "name": "曲岳",
      "lat": 35.802926,
      "lon": 138.536153,
      "elev": 1643,
      "azimuth": 274.19,
      "distance_km": 97.0,
      "angle_deg": 0.563
    },
    {
      "name": "小烏山",
      "lat": 35.79574,
      "lon": 138.688699,
      "elev": 1403,
      "azimuth": 274.24,
      "distance_km": 83.2,
      "angle_deg": 0.6083
    },
    {
      "name": "芦沢山",
      "lat": 35.786409,
      "lon": 138.893548,
      "elev": 1272,
      "azimuth": 274.4,
      "distance_km": 64.7,
      "angle_deg": 0.8326
    },
    {
      "name": "雨乞岳",
      "lat": 35.826252,
      "lon": 138.235633,
      "elev": 2037,
      "azimuth": 274.62,
      "distance_km": 124.3,
      "angle_deg": 0.4313
    },
    {
      "name": "道満山",
      "lat": 35.801359,
      "lon": 138.726339,
      "elev": 1314,
      "azimuth": 274.85,
      "distance_km": 79.9,
      "angle_deg": 0.5968
    },
    {
      "name": "丹波天平",
      "lat": 35.799789,
      "lon": 138.931068,
      "elev": 1343,
      "azimuth": 276.01,
      "distance_km": 61.4,
      "angle_deg": 0.9691
    },
    {
      "name": "乾徳山",
      "lat": 35.822838,
      "lon": 138.714926,
      "elev": 2031,
      "azimuth": 276.47,
      "distance_km": 81.1,
      "angle_deg": 1.0844
    },
    {
      "name": "剣ガ峰",
      "lat": 35.834121,
      "lon": 138.651539,
      "elev": 2053,
      "azimuth": 276.9,
      "distance_km": 86.9,
      "angle_deg": 0.9821
    },
    {
      "name": "遠見山",
      "lat": 35.832328,
      "lon": 138.673219,
      "elev": 2234,
      "azimuth": 276.91,
      "distance_km": 85.0,
      "angle_deg": 1.1425
    },
    {
      "name": "笠盛山",
      "lat": 35.83275,
      "lon": 138.710827,
      "elev": 2072,
      "azimuth": 277.21,
      "distance_km": 81.6,
      "angle_deg": 1.1028
    },
    {
      "name": "トサカ",
      "lat": 35.834863,
      "lon": 138.693483,
      "elev": 2047,
      "azimuth": 277.25,
      "distance_km": 83.2,
      "angle_deg": 1.0524
    },
    {
      "name": "赤指山",
      "lat": 35.808156,
      "lon": 138.976824,
      "elev": 1332,
      "azimuth": 277.33,
      "distance_km": 57.4,
      "angle_deg": 1.0588
    },
    {
      "name": "熊倉山",
      "lat": 35.817935,
      "lon": 138.904363,
      "elev": 1624,
      "azimuth": 277.59,
      "distance_km": 64.0,
      "angle_deg": 1.1606
    },
    {
      "name": "黒金山",
      "lat": 35.841301,
      "lon": 138.70981,
      "elev": 2232,
      "azimuth": 277.86,
      "distance_km": 81.8,
      "angle_deg": 1.2102
    },
    {
      "name": "石保戸山",
      "lat": 35.831723,
      "lon": 138.804724,
      "elev": 1673,
      "azimuth": 277.9,
      "distance_km": 73.2,
      "angle_deg": 0.9873
    },
    {
      "name": "牛首",
      "lat": 35.84286,
      "lon": 138.71987,
      "elev": 2086,
      "azimuth": 278.07,
      "distance_km": 80.9,
      "angle_deg": 1.1272
    },
    {
      "name": "八幡山",
      "lat": 35.858468,
      "lon": 138.608677,
      "elev": 2088,
      "azimuth": 278.32,
      "distance_km": 91.1,
      "angle_deg": 0.9272
    },
    {
      "name": "五里山",
      "lat": 35.864129,
      "lon": 138.582081,
      "elev": 1673,
      "azimuth": 278.5,
      "distance_km": 93.6,
      "angle_deg": 0.63
    },
    {
      "name": "奥千丈岳",
      "lat": 35.856637,
      "lon": 138.670129,
      "elev": 2409,
      "azimuth": 278.69,
      "distance_km": 85.6,
      "angle_deg": 1.2468
    },
    {
      "name": "千代ノ吹上",
      "lat": 35.87068,
      "lon": 138.619937,
      "elev": 2497,
      "azimuth": 279.26,
      "distance_km": 90.3,
      "angle_deg": 1.2014
    },
    {
      "name": "六ツ石山",
      "lat": 35.817269,
      "lon": 139.046447,
      "elev": 1479,
      "azimuth": 279.31,
      "distance_km": 51.3,
      "angle_deg": 1.3981
    },
    {
      "name": "鉄山",
      "lat": 35.870044,
      "lon": 138.63421,
      "elev": 2531,
      "azimuth": 279.34,
      "distance_km": 89.0,
      "angle_deg": 1.2507
    },
    {
      "name": "砂払ノ頭",
      "lat": 35.873596,
      "lon": 138.610963,
      "elev": 2317,
      "azimuth": 279.38,
      "distance_km": 91.2,
      "angle_deg": 1.0705
    },
    {
      "name": "金峰山",
      "lat": 35.871661,
      "lon": 138.625511,
      "elev": 2599,
      "azimuth": 279.38,
      "distance_km": 89.8,
      "angle_deg": 1.2766
    },
    {
      "name": "七ッ石山",
      "lat": 35.829751,
      "lon": 138.961809,
      "elev": 1757,
      "azimuth": 279.48,
      "distance_km": 59.1,
      "angle_deg": 1.4272
    },
    {
      "name": "大洞山",
      "lat": 35.839798,
      "lon": 138.892209,
      "elev": 2077,
      "azimuth": 279.57,
      "distance_km": 65.5,
      "angle_deg": 1.5204
    },
    {
      "name": "北奥千丈岳",
      "lat": 35.86863,
      "lon": 138.670727,
      "elev": 2601,
      "azimuth": 279.57,
      "distance_km": 85.7,
      "angle_deg": 1.3715
    },
    {
      "name": "鷹見岩",
      "lat": 35.878312,
      "lon": 138.598022,
      "elev": 2093,
      "azimuth": 279.59,
      "distance_km": 92.4,
      "angle_deg": 0.9074
    },
    {
      "name": "国師ヶ岳",
      "lat": 35.870839,
      "lon": 138.672964,
      "elev": 2592,
      "azimuth": 279.76,
      "distance_km": 85.6,
      "angle_deg": 1.3692
    },
    {
      "name": "日蔭名栗山",
      "lat": 35.828342,
      "lon": 138.992401,
      "elev": 1725,
      "azimuth": 279.77,
      "distance_km": 56.3,
      "angle_deg": 1.4864
    },
    {
      "name": "大日岩",
      "lat": 35.880223,
      "lon": 138.606537,
      "elev": 2201,
      "azimuth": 279.8,
      "distance_km": 91.7,
      "angle_deg": 0.9881
    },
    {
      "name": "将門馬場",
      "lat": 35.822531,
      "lon": 139.03784,
      "elev": 1455,
      "azimuth": 279.81,
      "distance_km": 52.2,
      "angle_deg": 1.3423
    },
    {
      "name": "城山",
      "lat": 35.824218,
      "lon": 139.029581,
      "elev": 1523,
      "azimuth": 279.87,
      "distance_km": 52.9,
      "angle_deg": 1.3904
    },
    {
      "name": "飯森山",
      "lat": 35.883196,
      "lon": 138.59723,
      "elev": 2116,
      "azimuth": 279.92,
      "distance_km": 92.5,
      "angle_deg": 0.9192
    },
    {
      "name": "高丸山",
      "lat": 35.833038,
      "lon": 138.983966,
      "elev": 1733,
      "azimuth": 280.16,
      "distance_km": 57.2,
      "angle_deg": 1.4661
    },
    {
      "name": "大常木山",
      "lat": 35.847442,
      "lon": 138.881807,
      "elev": 1962,
      "azimuth": 280.17,
      "distance_km": 66.5,
      "angle_deg": 1.3888
    },
    {
      "name": "鷹巣山",
      "lat": 35.829891,
      "lon": 139.012322,
      "elev": 1737,
      "azimuth": 280.25,
      "distance_km": 54.6,
      "angle_deg": 1.56
    },
    {
      "name": "天女山",
      "lat": 35.920859,
      "lon": 138.399266,
      "elev": 1529,
      "azimuth": 280.56,
      "distance_km": 110.9,
      "angle_deg": 0.3324
    },
    {
      "name": "瑞牆山",
      "lat": 35.893488,
      "lon": 138.591987,
      "elev": 2230,
      "azimuth": 280.56,
      "distance_km": 93.2,
      "angle_deg": 0.9776
    },
    {
      "name": "天の河原",
      "lat": 35.922943,
      "lon": 138.393519,
      "elev": 1620,
      "azimuth": 280.63,
      "distance_km": 111.4,
      "angle_deg": 0.3733
    },
    {
      "name": "竜喰山",
      "lat": 35.854929,
      "lon": 138.87232,
      "elev": 2012,
      "azimuth": 280.74,
      "distance_km": 67.5,
      "angle_deg": 1.4031
    },
    {
      "name": "笠取山",
      "lat": 35.865393,
      "lon": 138.819945,
      "elev": 1953,
      "azimuth": 280.97,
      "distance_km": 72.4,
      "angle_deg": 1.2256
    },
    {
      "name": "三ッ山",
      "lat": 35.8524,
      "lon": 138.910436,
      "elev": 1949,
      "azimuth": 281.04,
      "distance_km": 64.1,
      "angle_deg": 1.45
    },
    {
      "name": "飯盛山",
      "lat": 35.919405,
      "lon": 138.474283,
      "elev": 1643,
      "azimuth": 281.11,
      "distance_km": 104.2,
      "angle_deg": 0.4706
    },
    {
      "name": "燕山",
      "lat": 35.869582,
      "lon": 138.805746,
      "elev": 2004,
      "azimuth": 281.15,
      "distance_km": 73.7,
      "angle_deg": 1.2324
    },
    {
      "name": "編笠山",
      "lat": 35.941726,
      "lon": 138.34507,
      "elev": 2524,
      "azimuth": 281.28,
      "distance_km": 116.1,
      "angle_deg": 0.7686
    },
    {
      "name": "小雲取山",
      "lat": 35.849439,
      "lon": 138.948457,
      "elev": 1937,
      "azimuth": 281.34,
      "distance_km": 60.7,
      "angle_deg": 1.5481
    },
    {
      "name": "平沢山",
      "lat": 35.92436,
      "lon": 138.470396,
      "elev": 1653,
      "azimuth": 281.37,
      "distance_km": 104.6,
      "angle_deg": 0.4706
    },
    {
      "name": "三ッ頭",
      "lat": 35.942257,
      "lon": 138.363967,
      "elev": 2580,
      "azimuth": 281.46,
      "distance_km": 114.4,
      "angle_deg": 0.821
    },
    {
      "name": "古札山",
      "lat": 35.875456,
      "lon": 138.791998,
      "elev": 2112,
      "azimuth": 281.46,
      "distance_km": 75.1,
      "angle_deg": 1.2826
    },
    {
      "name": "横尾山",
      "lat": 35.918765,
      "lon": 138.521154,
      "elev": 1818,
      "azimuth": 281.51,
      "distance_km": 100.0,
      "angle_deg": 0.6239
    },
    {
      "name": "唐松尾山",
      "lat": 35.867688,
      "lon": 138.845395,
      "elev": 2109,
      "azimuth": 281.52,
      "distance_km": 70.2,
      "angle_deg": 1.4092
    },
    {
      "name": "鶏冠山",
      "lat": 35.887115,
      "lon": 138.72572,
      "elev": 2115,
      "azimuth": 281.55,
      "distance_km": 81.2,
      "angle_deg": 1.1417
    },
    {
      "name": "西岳",
      "lat": 35.949986,
      "lon": 138.334969,
      "elev": 2398,
      "azimuth": 281.63,
      "distance_km": 117.2,
      "angle_deg": 0.6917
    },
    {
      "name": "美し森",
      "lat": 35.939446,
      "lon": 138.421174,
      "elev": 1542,
      "azimuth": 281.8,
      "distance_km": 109.3,
      "angle_deg": 0.3567
    },
    {
      "name": "東梓",
      "lat": 35.896038,
      "lon": 138.692079,
      "elev": 2272,
      "azimuth": 281.82,
      "distance_km": 84.4,
      "angle_deg": 1.1809
    },
    {
      "name": "権現岳",
      "lat": 35.949758,
      "lon": 138.359701,
      "elev": 2715,
      "azimuth": 281.83,
      "distance_km": 115.0,
      "angle_deg": 0.8802
    },
    {
      "name": "小川山",
      "lat": 35.909446,
      "lon": 138.612291,
      "elev": 2418,
      "azimuth": 281.85,
      "distance_km": 91.7,
      "angle_deg": 1.1225
    },
    {
      "name": "雲取山",
      "lat": 35.855535,
      "lon": 138.943929,
      "elev": 2017,
      "azimuth": 281.89,
      "distance_km": 61.2,
      "angle_deg": 1.6054
    },
    {
      "name": "本仁田山",
      "lat": 35.830065,
      "lon": 139.101831,
      "elev": 1224,
      "azimuth": 281.99,
      "distance_km": 46.6,
      "angle_deg": 1.2636
    },
    {
      "name": "水晶山",
      "lat": 35.882021,
      "lon": 138.793161,
      "elev": 2158,
      "azimuth": 282.02,
      "distance_km": 75.1,
      "angle_deg": 1.3164
    },
    {
      "name": "旭岳",
      "lat": 35.95361,
      "lon": 138.359595,
      "elev": 2672,
      "azimuth": 282.04,
      "distance_km": 115.0,
      "angle_deg": 0.8574
    },
    {
      "name": "牛首山",
      "lat": 35.954523,
      "lon": 138.388691,
      "elev": 2280,
      "azimuth": 282.35,
      "distance_km": 112.5,
      "angle_deg": 0.6976
    },
    {
      "name": "立場岳",
      "lat": 35.962093,
      "lon": 138.343852,
      "elev": 2370,
      "azimuth": 282.36,
      "distance_km": 116.6,
      "angle_deg": 0.6852
    },
    {
      "name": "両門ノ頭",
      "lat": 35.902986,
      "lon": 138.699973,
      "elev": 2263,
      "azimuth": 282.43,
      "distance_km": 83.8,
      "angle_deg": 1.1868
    },
    {
      "name": "西仙波",
      "lat": 35.874529,
      "lon": 138.868482,
      "elev": 1983,
      "azimuth": 282.48,
      "distance_km": 68.3,
      "angle_deg": 1.3573
    },
    {
      "name": "東仙波",
      "lat": 35.875355,
      "lon": 138.873039,
      "elev": 2003,
      "azimuth": 282.63,
      "distance_km": 67.9,
      "angle_deg": 1.385
    },
    {
      "name": "女山",
      "lat": 35.938525,
      "lon": 138.524452,
      "elev": 1734,
      "azimuth": 282.78,
      "distance_km": 100.1,
      "angle_deg": 0.5738
    },
    {
      "name": "木賊山",
      "lat": 35.904031,
      "lon": 138.733938,
      "elev": 2469,
      "azimuth": 282.96,
      "distance_km": 80.9,
      "angle_deg": 1.3999
    },
    {
      "name": "東破風山",
      "lat": 35.899012,
      "lon": 138.76557,
      "elev": 2180,
      "azimuth": 283.01,
      "distance_km": 77.9,
      "angle_deg": 1.2631
    },
    {
      "name": "阿弥陀岳",
      "lat": 35.972404,
      "lon": 138.358804,
      "elev": 2805,
      "azimuth": 283.05,
      "distance_km": 115.5,
      "angle_deg": 0.9158
    },
    {
      "name": "富士見",
      "lat": 35.909966,
      "lon": 138.707948,
      "elev": 2373,
      "azimuth": 283.05,
      "distance_km": 83.3,
      "angle_deg": 1.2744
    },
    {
      "name": "赤岳",
      "lat": 35.970807,
      "lon": 138.370071,
      "elev": 2899,
      "azimuth": 283.07,
      "distance_km": 114.5,
      "angle_deg": 0.9793
    },
    {
      "name": "水師",
      "lat": 35.908213,
      "lon": 138.719195,
      "elev": 2396,
      "azimuth": 283.08,
      "distance_km": 82.3,
      "angle_deg": 1.3145
    },
    {
      "name": "破風山",
      "lat": 35.901854,
      "lon": 138.758769,
      "elev": 2318,
      "azimuth": 283.14,
      "distance_km": 78.6,
      "angle_deg": 1.3475
    },
    {
      "name": "雁坂嶺",
      "lat": 35.898793,
      "lon": 138.781411,
      "elev": 2289,
      "azimuth": 283.23,
      "distance_km": 76.5,
      "angle_deg": 1.3791
    },
    {
      "name": "甲武信ヶ岳",
      "lat": 35.909183,
      "lon": 138.728873,
      "elev": 2475,
      "azimuth": 283.28,
      "distance_km": 81.4,
      "angle_deg": 1.39
    },
    {
      "name": "長峰",
      "lat": 35.921719,
      "lon": 138.664868,
      "elev": 2065,
      "azimuth": 283.34,
      "distance_km": 87.4,
      "angle_deg": 0.9821
    },
    {
      "name": "美濃戸中山",
      "lat": 35.982121,
      "lon": 138.352743,
      "elev": 2387,
      "azimuth": 283.51,
      "distance_km": 116.3,
      "angle_deg": 0.6979
    },
    {
      "name": "天祖山",
      "lat": 35.864435,
      "lon": 138.989928,
      "elev": 1723,
      "azimuth": 283.68,
      "distance_km": 57.3,
      "angle_deg": 1.4508
    },
    {
      "name": "三叉峰",
      "lat": 35.9831,
      "lon": 138.374274,
      "elev": 2825,
      "azimuth": 283.78,
      "distance_km": 114.4,
      "angle_deg": 0.9432
    },
    {
      "name": "横岳",
      "lat": 35.984791,
      "lon": 138.373261,
      "elev": 2826,
      "azimuth": 283.86,
      "distance_km": 114.6,
      "angle_deg": 0.9416
    },
    {
      "name": "三宝山",
      "lat": 35.917627,
      "lon": 138.72782,
      "elev": 2484,
      "azimuth": 283.91,
      "distance_km": 81.7,
      "angle_deg": 1.3884
    },
    {
      "name": "奥ノ院",
      "lat": 35.985975,
      "lon": 138.372834,
      "elev": 2830,
      "azimuth": 283.92,
      "distance_km": 114.6,
      "angle_deg": 0.9425
    },
    {
      "name": "滝入ノ峰",
      "lat": 35.854816,
      "lon": 139.053082,
      "elev": 1310,
      "azimuth": 283.99,
      "distance_km": 51.5,
      "angle_deg": 1.2025
    },
    {
      "name": "笙ノ岩山",
      "lat": 35.851766,
      "lon": 139.078642,
      "elev": 1255,
      "azimuth": 284.24,
      "distance_km": 49.2,
      "angle_deg": 1.2137
    },
    {
      "name": "峰の松目",
      "lat": 35.996859,
      "lon": 138.350543,
      "elev": 2568,
      "azimuth": 284.27,
      "distance_km": 116.9,
      "angle_deg": 0.7788
    },
    {
      "name": "赤岩ノ頭",
      "lat": 35.995409,
      "lon": 138.363886,
      "elev": 2656,
      "azimuth": 284.33,
      "distance_km": 115.7,
      "angle_deg": 0.84
    },
    {
      "name": "白岩山",
      "lat": 35.878849,
      "lon": 138.952252,
      "elev": 1921,
      "azimuth": 284.41,
      "distance_km": 61.0,
      "angle_deg": 1.521
    },
    {
      "name": "硫黄岳",
      "lat": 35.9985,
      "lon": 138.367427,
      "elev": 2760,
      "azimuth": 284.53,
      "distance_km": 115.4,
      "angle_deg": 0.8951
    },
    {
      "name": "武信白岩山南峰",
      "lat": 35.926902,
      "lon": 138.737714,
      "elev": 2288,
      "azimuth": 284.76,
      "distance_km": 81.1,
      "angle_deg": 1.2659
    },
    {
      "name": "川苔山",
      "lat": 35.850806,
      "lon": 139.106885,
      "elev": 1363,
      "azimuth": 284.87,
      "distance_km": 46.7,
      "angle_deg": 1.4315
    },
    {
      "name": "和名倉山",
      "lat": 35.899423,
      "lon": 138.877996,
      "elev": 2036,
      "azimuth": 284.91,
      "distance_km": 68.1,
      "angle_deg": 1.4077
    },
    {
      "name": "武信白岩山 ぶしんしらいわやま",
      "lat": 35.928728,
      "lon": 138.738599,
      "elev": 2270,
      "azimuth": 284.91,
      "distance_km": 81.1,
      "angle_deg": 1.2538
    },
    {
      "name": "ウトウの頭",
      "lat": 35.873094,
      "lon": 139.011266,
      "elev": 1588,
      "azimuth": 285.1,
      "distance_km": 55.7,
      "angle_deg": 1.3673
    },
    {
      "name": "五郎山",
      "lat": 35.940681,
      "lon": 138.696758,
      "elev": 2132,
      "azimuth": 285.15,
      "distance_km": 85.1,
      "angle_deg": 1.0716
    },
    {
      "name": "根石岳",
      "lat": 36.015511,
      "lon": 138.360214,
      "elev": 2603,
      "azimuth": 285.36,
      "distance_km": 116.5,
      "angle_deg": 0.801
    },
    {
      "name": "水松山",
      "lat": 35.881205,
      "lon": 138.98873,
      "elev": 1699,
      "azimuth": 285.45,
      "distance_km": 57.9,
      "angle_deg": 1.4083
    },
    {
      "name": "長沢山",
      "lat": 35.88395,
      "lon": 138.976899,
      "elev": 1738,
      "azimuth": 285.46,
      "distance_km": 59.0,
      "angle_deg": 1.411
    },
    {
      "name": "大山",
      "lat": 35.936219,
      "lon": 138.737596,
      "elev": 2225,
      "azimuth": 285.47,
      "distance_km": 81.4,
      "angle_deg": 1.2152
    },
    {
      "name": "天狗岳",
      "lat": 36.019183,
      "lon": 138.355453,
      "elev": 2646,
      "azimuth": 285.5,
      "distance_km": 117.1,
      "angle_deg": 0.8144
    },
    {
      "name": "タワ尾根ノ頭",
      "lat": 35.883661,
      "lon": 139.001229,
      "elev": 1710,
      "azimuth": 286.01,
      "distance_km": 56.9,
      "angle_deg": 1.4525
    },
    {
      "name": "十文字山",
      "lat": 35.945389,
      "lon": 138.731044,
      "elev": 2072,
      "azimuth": 286.04,
      "distance_km": 82.2,
      "angle_deg": 1.0898
    },
    {
      "name": "中山",
      "lat": 36.033547,
      "lon": 138.35654,
      "elev": 2496,
      "azimuth": 286.26,
      "distance_km": 117.4,
      "angle_deg": 0.7365
    },
    {
      "name": "稲子岳",
      "lat": 36.031896,
      "lon": 138.369777,
      "elev": 2380,
      "azimuth": 286.33,
      "distance_km": 116.2,
      "angle_deg": 0.6963
    },
    {
      "name": "のぞき岩",
      "lat": 35.951515,
      "lon": 138.729036,
      "elev": 1922,
      "azimuth": 286.47,
      "distance_km": 82.6,
      "angle_deg": 0.9781
    },
    {
      "name": "冷山",
      "lat": 36.043737,
      "lon": 138.329888,
      "elev": 2193,
      "azimuth": 286.48,
      "distance_km": 120.0,
      "angle_deg": 0.5555
    },
    {
      "name": "日向沢ノ峰",
      "lat": 35.865471,
      "lon": 139.10139,
      "elev": 1356,
      "azimuth": 286.61,
      "distance_km": 47.6,
      "angle_deg": 1.3884
    },
    {
      "name": "ニュウ",
      "lat": 36.039528,
      "lon": 138.370365,
      "elev": 2352,
      "azimuth": 286.74,
      "distance_km": 116.4,
      "angle_deg": 0.68
    },
    {
      "name": "天目山",
      "lat": 35.877241,
      "lon": 139.058179,
      "elev": 1576,
      "azimuth": 286.79,
      "distance_km": 51.7,
      "angle_deg": 1.4906
    },
    {
      "name": "桂谷ノ峰",
      "lat": 35.869269,
      "lon": 139.093862,
      "elev": 1380,
      "azimuth": 286.87,
      "distance_km": 48.4,
      "angle_deg": 1.3887
    },
    {
      "name": "弁慶岩",
      "lat": 35.957773,
      "lon": 138.725591,
      "elev": 1879,
      "azimuth": 286.87,
      "distance_km": 83.1,
      "angle_deg": 0.9389
    },
    {
      "name": "霧藻ケ峰",
      "lat": 35.903562,
      "lon": 138.95321,
      "elev": 1523,
      "azimuth": 286.9,
      "distance_km": 61.7,
      "angle_deg": 1.1306
    },
    {
      "name": "丸山",
      "lat": 36.047685,
      "lon": 138.348065,
      "elev": 2330,
      "azimuth": 286.9,
      "distance_km": 118.5,
      "angle_deg": 0.6399
    },
    {
      "name": "行福ノタオ",
      "lat": 35.890771,
      "lon": 139.006389,
      "elev": 1551,
      "azimuth": 286.91,
      "distance_km": 56.7,
      "angle_deg": 1.2995
    },
    {
      "name": "扇平山",
      "lat": 35.97367,
      "lon": 138.665472,
      "elev": 1701,
      "azimuth": 286.98,
      "distance_km": 88.8,
      "angle_deg": 0.7203
    },
    {
      "name": "蕎麦粒山",
      "lat": 35.872154,
      "lon": 139.087188,
      "elev": 1473,
      "azimuth": 287.02,
      "distance_km": 49.1,
      "angle_deg": 1.4729
    },
    {
      "name": "梓白岩",
      "lat": 35.961383,
      "lon": 138.719819,
      "elev": 1853,
      "azimuth": 287.03,
      "distance_km": 83.7,
      "angle_deg": 0.9094
    },
    {
      "name": "立橋",
      "lat": 35.883829,
      "lon": 139.044448,
      "elev": 1591,
      "azimuth": 287.17,
      "distance_km": 53.1,
      "angle_deg": 1.4568
    },
    {
      "name": "仙元峠",
      "lat": 35.874837,
      "lon": 139.082583,
      "elev": 1444,
      "azimuth": 287.22,
      "distance_km": 49.6,
      "angle_deg": 1.4214
    },
    {
      "name": "悪石",
      "lat": 35.97149,
      "lon": 138.711366,
      "elev": 1850,
      "azimuth": 287.61,
      "distance_km": 84.7,
      "angle_deg": 0.8879
    },
    {
      "name": "七跳山",
      "lat": 35.890161,
      "lon": 139.035208,
      "elev": 1651,
      "azimuth": 287.62,
      "distance_km": 54.2,
      "angle_deg": 1.4855
    },
    {
      "name": "酉谷山",
      "lat": 35.897121,
      "lon": 139.010326,
      "elev": 1718,
      "azimuth": 287.69,
      "distance_km": 56.5,
      "angle_deg": 1.4731
    },
    {
      "name": "茶臼山",
      "lat": 36.068085,
      "lon": 138.334299,
      "elev": 2384,
      "azimuth": 287.77,
      "distance_km": 120.4,
      "angle_deg": 0.6417
    },
    {
      "name": "岩ドヤ",
      "lat": 35.959522,
      "lon": 138.778593,
      "elev": 1818,
      "azimuth": 287.99,
      "distance_km": 78.6,
      "angle_deg": 0.9847
    },
    {
      "name": "赤沢山",
      "lat": 35.960641,
      "lon": 138.774487,
      "elev": 1819,
      "azimuth": 287.99,
      "distance_km": 78.9,
      "angle_deg": 0.9776
    },
    {
      "name": "日向谷ノ頭",
      "lat": 35.897591,
      "lon": 139.020032,
      "elev": 1702,
      "azimuth": 288.01,
      "distance_km": 55.7,
      "angle_deg": 1.4845
    },
    {
      "name": "仁田山",
      "lat": 35.875191,
      "lon": 139.108621,
      "elev": 1211,
      "azimuth": 288.09,
      "distance_km": 47.3,
      "angle_deg": 1.2244
    },
    {
      "name": "縞枯山",
      "lat": 36.075309,
      "lon": 138.331541,
      "elev": 2403,
      "azimuth": 288.1,
      "distance_km": 120.8,
      "angle_deg": 0.6444
    },
    {
      "name": "小黒",
      "lat": 35.90089,
      "lon": 139.010508,
      "elev": 1650,
      "azimuth": 288.1,
      "distance_km": 56.6,
      "angle_deg": 1.4003
    },
    {
      "name": "妙法ヶ岳",
      "lat": 35.917946,
      "lon": 138.947578,
      "elev": 1329,
      "azimuth": 288.17,
      "distance_km": 62.6,
      "angle_deg": 0.9283
    },
    {
      "name": "白泰山",
      "lat": 35.956868,
      "lon": 138.801107,
      "elev": 1794,
      "azimuth": 288.23,
      "distance_km": 76.5,
      "angle_deg": 1.0089
    },
    {
      "name": "峰雄山",
      "lat": 36.012818,
      "lon": 138.586399,
      "elev": 1631,
      "azimuth": 288.25,
      "distance_km": 96.9,
      "angle_deg": 0.5585
    },
    {
      "name": "大平山",
      "lat": 35.893891,
      "lon": 139.04615,
      "elev": 1603,
      "azimuth": 288.36,
      "distance_km": 53.3,
      "angle_deg": 1.4631
    },
    {
      "name": "雨池山",
      "lat": 36.081896,
      "lon": 138.332826,
      "elev": 2325,
      "azimuth": 288.44,
      "distance_km": 121.0,
      "angle_deg": 0.6061
    },
    {
      "name": "北横岳南峰",
      "lat": 36.086178,
      "lon": 138.319477,
      "elev": 2472,
      "azimuth": 288.48,
      "distance_km": 122.2,
      "angle_deg": 0.6583
    },
    {
      "name": "北横岳",
      "lat": 36.087493,
      "lon": 138.320106,
      "elev": 2480,
      "azimuth": 288.56,
      "distance_km": 122.2,
      "angle_deg": 0.6624
    },
    {
      "name": "三国山",
      "lat": 35.985093,
      "lon": 138.712927,
      "elev": 1834,
      "azimuth": 288.61,
      "distance_km": 85.1,
      "angle_deg": 0.8712
    },
    {
      "name": "三ツ岳",
      "lat": 36.086658,
      "lon": 138.330157,
      "elev": 2360,
      "azimuth": 288.65,
      "distance_km": 121.3,
      "angle_deg": 0.6176
    },
    {
      "name": "1452ピーク",
      "lat": 35.908886,
      "lon": 139.00451,
      "elev": 1452,
      "azimuth": 288.78,
      "distance_km": 57.4,
      "angle_deg": 1.1775
    },
    {
      "name": "ずみ岩",
      "lat": 36.01022,
      "lon": 138.630912,
      "elev": 1789,
      "azimuth": 288.83,
      "distance_km": 93.0,
      "angle_deg": 0.7106
    },
    {
      "name": "大岳",
      "lat": 36.090949,
      "lon": 138.330353,
      "elev": 2382,
      "azimuth": 288.86,
      "distance_km": 121.5,
      "angle_deg": 0.6263
    },
    {
      "name": "立橋山",
      "lat": 35.904481,
      "lon": 139.026329,
      "elev": 1530,
      "azimuth": 288.94,
      "distance_km": 55.4,
      "angle_deg": 1.3172
    },
    {
      "name": "八柱山",
      "lat": 36.084847,
      "lon": 138.35937,
      "elev": 2115,
      "azimuth": 288.94,
      "distance_km": 118.8,
      "angle_deg": 0.533
    },
    {
      "name": "蓼科山",
      "lat": 36.103735,
      "lon": 138.295093,
      "elev": 2531,
      "azimuth": 289.03,
      "distance_km": 124.9,
      "angle_deg": 0.6505
    },
    {
      "name": "檜岳",
      "lat": 35.913802,
      "lon": 138.99919,
      "elev": 1451,
      "azimuth": 289.14,
      "distance_km": 58.1,
      "angle_deg": 1.1589
    },
    {
      "name": "双子山",
      "lat": 36.108157,
      "lon": 138.325788,
      "elev": 2224,
      "azimuth": 289.65,
      "distance_km": 122.5,
      "angle_deg": 0.5396
    },
    {
      "name": "蝉笹山",
      "lat": 35.920535,
      "lon": 138.99553,
      "elev": 1440,
      "azimuth": 289.73,
      "distance_km": 58.6,
      "angle_deg": 1.1328
    },
    {
      "name": "ツバクラ山",
      "lat": 36.032576,
      "lon": 138.600791,
      "elev": 2017,
      "azimuth": 289.73,
      "distance_km": 96.3,
      "angle_deg": 0.7953
    },
    {
      "name": "前御座山",
      "lat": 36.031825,
      "lon": 138.605457,
      "elev": 2050,
      "azimuth": 289.76,
      "distance_km": 95.9,
      "angle_deg": 0.8218
    },
    {
      "name": "有間山 タタラノ頭",
      "lat": 35.886637,
      "lon": 139.115978,
      "elev": 1214,
      "azimuth": 289.81,
      "distance_km": 47.1,
      "angle_deg": 1.235
    },
    {
      "name": "御座山",
      "lat": 36.03409,
      "lon": 138.606782,
      "elev": 2112,
      "azimuth": 289.93,
      "distance_km": 95.9,
      "angle_deg": 0.8594
    },
    {
      "name": "前衛峰",
      "lat": 36.037485,
      "lon": 138.611663,
      "elev": 1992,
      "azimuth": 290.23,
      "distance_km": 95.6,
      "angle_deg": 0.7923
    },
    {
      "name": "トキンの岩",
      "lat": 36.123761,
      "lon": 138.31678,
      "elev": 2014,
      "azimuth": 290.29,
      "distance_km": 123.8,
      "angle_deg": 0.4262
    },
    {
      "name": "矢岳",
      "lat": 35.916252,
      "lon": 139.030764,
      "elev": 1358,
      "azimuth": 290.36,
      "distance_km": 55.5,
      "angle_deg": 1.1378
    },
    {
      "name": "烏頭山",
      "lat": 35.974698,
      "lon": 138.860926,
      "elev": 1384,
      "azimuth": 291.04,
      "distance_km": 72.1,
      "angle_deg": 0.7808
    },
    {
      "name": "大通嶺",
      "lat": 36.071107,
      "lon": 138.556877,
      "elev": 1496,
      "azimuth": 291.27,
      "distance_km": 101.5,
      "angle_deg": 0.4212
    },
    {
      "name": "倉明山",
      "lat": 35.972438,
      "lon": 138.88443,
      "elev": 1334,
      "azimuth": 291.46,
      "distance_km": 70.0,
      "angle_deg": 0.7794
    },
    {
      "name": "芋堀ドッケン",
      "lat": 35.980507,
      "lon": 138.866102,
      "elev": 1464,
      "azimuth": 291.65,
      "distance_km": 71.9,
      "angle_deg": 0.8489
    },
    {
      "name": "小岩峰",
      "lat": 35.979116,
      "lon": 138.874389,
      "elev": 1331,
      "azimuth": 291.75,
      "distance_km": 71.1,
      "angle_deg": 0.7565
    },
    {
      "name": "1424峰",
      "lat": 35.984143,
      "lon": 138.862221,
      "elev": 1424,
      "azimuth": 291.85,
      "distance_km": 72.3,
      "angle_deg": 0.8079
    },
    {
      "name": "南天山",
      "lat": 36.011252,
      "lon": 138.780836,
      "elev": 1483,
      "azimuth": 291.94,
      "distance_km": 80.3,
      "angle_deg": 0.7112
    },
    {
      "name": "1441峰",
      "lat": 35.990349,
      "lon": 138.854358,
      "elev": 1441,
      "azimuth": 292.15,
      "distance_km": 73.3,
      "angle_deg": 0.804
    },
    {
      "name": "井戸山",
      "lat": 35.995419,
      "lon": 138.847658,
      "elev": 1436,
      "azimuth": 292.38,
      "distance_km": 74.0,
      "angle_deg": 0.7858
    },
    {
      "name": "船坂山",
      "lat": 36.059158,
      "lon": 138.659166,
      "elev": 1446,
      "azimuth": 292.52,
      "distance_km": 92.4,
      "angle_deg": 0.5062
    },
    {
      "name": "梵天岩",
      "lat": 36.000849,
      "lon": 138.839475,
      "elev": 1450,
      "azimuth": 292.6,
      "distance_km": 74.9,
      "angle_deg": 0.7799
    },
    {
      "name": "横箱山",
      "lat": 36.002065,
      "lon": 138.839716,
      "elev": 1477,
      "azimuth": 292.7,
      "distance_km": 75.0,
      "angle_deg": 0.7998
    },
    {
      "name": "諏訪山",
      "lat": 36.040047,
      "lon": 138.729577,
      "elev": 1550,
      "azimuth": 292.8,
      "distance_km": 85.8,
      "angle_deg": 0.6688
    },
    {
      "name": "ぶどう岳",
      "lat": 36.068845,
      "lon": 138.642787,
      "elev": 1622,
      "azimuth": 292.8,
      "distance_km": 94.2,
      "angle_deg": 0.5897
    },
    {
      "name": "新三郎",
      "lat": 36.080046,
      "lon": 138.632937,
      "elev": 1682,
      "azimuth": 293.28,
      "distance_km": 95.5,
      "angle_deg": 0.6075
    },
    {
      "name": "茂来山",
      "lat": 36.111834,
      "lon": 138.547714,
      "elev": 1718,
      "azimuth": 293.45,
      "distance_km": 103.9,
      "angle_deg": 0.5146
    },
    {
      "name": "四方原山",
      "lat": 36.095791,
      "lon": 138.596399,
      "elev": 1632,
      "azimuth": 293.48,
      "distance_km": 99.2,
      "angle_deg": 0.5274
    },
    {
      "name": "マムシ岳",
      "lat": 36.07385,
      "lon": 138.671004,
      "elev": 1308,
      "azimuth": 293.71,
      "distance_km": 92.1,
      "angle_deg": 0.4248
    },
    {
      "name": "天丸山",
      "lat": 36.041804,
      "lon": 138.767979,
      "elev": 1506,
      "azimuth": 293.83,
      "distance_km": 82.6,
      "angle_deg": 0.6886
    },
    {
      "name": "瞽女ヶ岳",
      "lat": 36.003391,
      "lon": 138.890463,
      "elev": 1200,
      "azimuth": 294.21,
      "distance_km": 70.8,
      "angle_deg": 0.6562
    },
    {
      "name": "両神神社1627m峰",
      "lat": 36.020191,
      "lon": 138.845746,
      "elev": 1627,
      "azimuth": 294.27,
      "distance_km": 75.3,
      "angle_deg": 0.9088
    },
    {
      "name": "大持山",
      "lat": 35.928524,
      "lon": 139.10055,
      "elev": 1294,
      "azimuth": 294.29,
      "distance_km": 50.1,
      "angle_deg": 1.2298
    },
    {
      "name": "三笠山",
      "lat": 36.018401,
      "lon": 138.851274,
      "elev": 1418,
      "azimuth": 294.29,
      "distance_km": 74.7,
      "angle_deg": 0.7593
    },
    {
      "name": "エビヅルの頭",
      "lat": 36.016295,
      "lon": 138.858604,
      "elev": 1351,
      "azimuth": 294.33,
      "distance_km": 74.0,
      "angle_deg": 0.7201
    },
    {
      "name": "赤岩岳",
      "lat": 36.03361,
      "lon": 138.811743,
      "elev": 1570,
      "azimuth": 294.36,
      "distance_km": 78.7,
      "angle_deg": 0.8019
    },
    {
      "name": "逸見ヶ岳",
      "lat": 36.014905,
      "lon": 138.86468,
      "elev": 1378,
      "azimuth": 294.39,
      "distance_km": 73.5,
      "angle_deg": 0.7515
    },
    {
      "name": "両神山",
      "lat": 36.023417,
      "lon": 138.841302,
      "elev": 1723,
      "azimuth": 294.4,
      "distance_km": 75.8,
      "angle_deg": 0.9715
    },
    {
      "name": "小倉山",
      "lat": 36.070346,
      "lon": 138.724964,
      "elev": 1244,
      "azimuth": 294.73,
      "distance_km": 87.5,
      "angle_deg": 0.4425
    },
    {
      "name": "天望山",
      "lat": 36.09734,
      "lon": 138.654044,
      "elev": 1471,
      "azimuth": 294.8,
      "distance_km": 94.5,
      "angle_deg": 0.4937
    },
    {
      "name": "小持山",
      "lat": 35.935332,
      "lon": 139.095768,
      "elev": 1273,
      "azimuth": 294.87,
      "distance_km": 50.8,
      "angle_deg": 1.1835
    },
    {
      "name": "東岳",
      "lat": 36.030269,
      "lon": 138.841705,
      "elev": 1660,
      "azimuth": 294.93,
      "distance_km": 76.0,
      "angle_deg": 0.9181
    },
    {
      "name": "蓬莱山",
      "lat": 36.041449,
      "lon": 138.82904,
      "elev": 1377,
      "azimuth": 295.42,
      "distance_km": 77.6,
      "angle_deg": 0.6787
    },
    {
      "name": "武甲山",
      "lat": 35.951612,
      "lon": 139.097776,
      "elev": 1304,
      "azimuth": 296.78,
      "distance_km": 51.4,
      "angle_deg": 1.1991
    },
    {
      "name": "霊仙峰",
      "lat": 36.181639,
      "lon": 138.599862,
      "elev": 1269,
      "azimuth": 298.44,
      "distance_km": 103.0,
      "angle_deg": 0.2769
    },
    {
      "name": "立岩",
      "lat": 36.186463,
      "lon": 138.642912,
      "elev": 1265,
      "azimuth": 299.75,
      "distance_km": 99.9,
      "angle_deg": 0.3084
    },
    {
      "name": "兜岩山",
      "lat": 36.199373,
      "lon": 138.617653,
      "elev": 1368,
      "azimuth": 299.83,
      "distance_km": 102.5,
      "angle_deg": 0.3375
    },
    {
      "name": "日影山",
      "lat": 36.132425,
      "lon": 138.771797,
      "elev": 1407,
      "azimuth": 300.03,
      "distance_km": 86.8,
      "angle_deg": 0.5581
    },
    {
      "name": "荒船山",
      "lat": 36.20403,
      "lon": 138.637127,
      "elev": 1356,
      "azimuth": 300.57,
      "distance_km": 101.3,
      "angle_deg": 0.3446
    },
    {
      "name": "熊倉峰",
      "lat": 36.226729,
      "lon": 138.614647,
      "elev": 1234,
      "azimuth": 301.21,
      "distance_km": 104.3,
      "angle_deg": 0.2444
    },
    {
      "name": "凧の峰",
      "lat": 36.24376,
      "lon": 138.593826,
      "elev": 1293,
      "azimuth": 301.57,
      "distance_km": 106.9,
      "angle_deg": 0.2502
    },
    {
      "name": "物見山",
      "lat": 36.247412,
      "lon": 138.604551,
      "elev": 1376,
      "azimuth": 302.02,
      "distance_km": 106.3,
      "angle_deg": 0.301
    },
    {
      "name": "寄石山",
      "lat": 36.256339,
      "lon": 138.589232,
      "elev": 1335,
      "azimuth": 302.09,
      "distance_km": 107.9,
      "angle_deg": 0.2616
    },
    {
      "name": "赤久縄山",
      "lat": 36.143664,
      "lon": 138.843278,
      "elev": 1523,
      "azimuth": 303.01,
      "distance_km": 81.9,
      "angle_deg": 0.7116
    },
    {
      "name": "稲含山",
      "lat": 36.169494,
      "lon": 138.825239,
      "elev": 1370,
      "azimuth": 304.05,
      "distance_km": 84.9,
      "angle_deg": 0.5617
    },
    {
      "name": "石尊山",
      "lat": 36.377084,
      "lon": 138.523968,
      "elev": 1668,
      "azimuth": 306.08,
      "distance_km": 120.2,
      "angle_deg": 0.3023
    },
    {
      "name": "牙山",
      "lat": 36.39681,
      "lon": 138.496612,
      "elev": 2111,
      "azimuth": 306.25,
      "distance_km": 123.5,
      "angle_deg": 0.4746
    },
    {
      "name": "西御荷鉾山",
      "lat": 36.152234,
      "lon": 138.918306,
      "elev": 1286,
      "azimuth": 306.32,
      "distance_km": 76.9,
      "angle_deg": 0.6231
    },
    {
      "name": "黒斑山",
      "lat": 36.405231,
      "lon": 138.488548,
      "elev": 2404,
      "azimuth": 306.41,
      "distance_km": 124.6,
      "angle_deg": 0.5962
    },
    {
      "name": "蛇骨岳",
      "lat": 36.411958,
      "lon": 138.4915,
      "elev": 2366,
      "azimuth": 306.76,
      "distance_km": 124.9,
      "angle_deg": 0.5759
    },
    {
      "name": "前掛山",
      "lat": 36.403798,
      "lon": 138.513302,
      "elev": 2524,
      "azimuth": 306.95,
      "distance_km": 122.7,
      "angle_deg": 0.6763
    },
    {
      "name": "東御荷鉾山",
      "lat": 36.149155,
      "lon": 138.94144,
      "elev": 1246,
      "azimuth": 307.04,
      "distance_km": 75.0,
      "angle_deg": 0.6228
    },
    {
      "name": "浅間山",
      "lat": 36.406553,
      "lon": 138.522952,
      "elev": 2568,
      "azimuth": 307.31,
      "distance_km": 122.2,
      "angle_deg": 0.7038
    },
    {
      "name": "小浅間山",
      "lat": 36.409959,
      "lon": 138.562214,
      "elev": 1655,
      "azimuth": 308.46,
      "distance_km": 119.7,
      "angle_deg": 0.3021
    },
    {
      "name": "一ノ字山",
      "lat": 36.372986,
      "lon": 138.651605,
      "elev": 1336,
      "azimuth": 309.33,
      "distance_km": 110.8,
      "angle_deg": 0.2332
    },
    {
      "name": "留夫山",
      "lat": 36.39608,
      "lon": 138.652048,
      "elev": 1591,
      "azimuth": 310.36,
      "distance_km": 112.4,
      "angle_deg": 0.3474
    },
    {
      "name": "鼻曲山",
      "lat": 36.410857,
      "lon": 138.64534,
      "elev": 1655,
      "azimuth": 310.8,
      "distance_km": 113.9,
      "angle_deg": 0.3633
    },
    {
      "name": "氷妻山",
      "lat": 36.424909,
      "lon": 138.647319,
      "elev": 1468,
      "azimuth": 311.45,
      "distance_km": 114.8,
      "angle_deg": 0.26
    },
    {
      "name": "駒髪山",
      "lat": 36.437846,
      "lon": 138.641673,
      "elev": 1483,
      "azimuth": 311.83,
      "distance_km": 116.1,
      "angle_deg": 0.2544
    },
    {
      "name": "剣の峰",
      "lat": 36.415708,
      "lon": 138.681399,
      "elev": 1430,
      "azimuth": 312.08,
      "distance_km": 111.8,
      "angle_deg": 0.2711
    },
    {
      "name": "角落山",
      "lat": 36.421787,
      "lon": 138.688237,
      "elev": 1393,
      "azimuth": 312.55,
      "distance_km": 111.8,
      "angle_deg": 0.2524
    },
    {
      "name": "浅間隠山",
      "lat": 36.453695,
      "lon": 138.652493,
      "elev": 1757,
      "azimuth": 312.79,
      "distance_km": 116.6,
      "angle_deg": 0.3845
    },
    {
      "name": "笹塒山",
      "lat": 36.473828,
      "lon": 138.692618,
      "elev": 1402,
      "azimuth": 314.81,
      "distance_km": 115.5,
      "angle_deg": 0.2207
    },
    {
      "name": "高間山",
      "lat": 36.575085,
      "lon": 138.681374,
      "elev": 1342,
      "azimuth": 318.2,
      "distance_km": 124.3,
      "angle_deg": 0.1111
    },
    {
      "name": "李が嶽",
      "lat": 36.459807,
      "lon": 138.835755,
      "elev": 1292,
      "azimuth": 319.08,
      "distance_km": 105.5,
      "angle_deg": 0.2635
    },
    {
      "name": "榛名山・掃部ヶ岳",
      "lat": 36.477412,
      "lon": 138.85088,
      "elev": 1449,
      "azimuth": 320.32,
      "distance_km": 106.1,
      "angle_deg": 0.3422
    },
    {
      "name": "居鞍岳",
      "lat": 36.490865,
      "lon": 138.841296,
      "elev": 1340,
      "azimuth": 320.49,
      "distance_km": 107.8,
      "angle_deg": 0.2657
    },
    {
      "name": "硯岩(榛名山)",
      "lat": 36.47932,
      "lon": 138.858614,
      "elev": 1251,
      "azimuth": 320.68,
      "distance_km": 105.8,
      "angle_deg": 0.2381
    },
    {
      "name": "三ッ峰山",
      "lat": 36.461658,
      "lon": 138.882304,
      "elev": 1315,
      "azimuth": 320.9,
      "distance_km": 103.0,
      "angle_deg": 0.3031
    },
    {
      "name": "髭櫛山",
      "lat": 36.486863,
      "lon": 138.863907,
      "elev": 1350,
      "azimuth": 321.17,
      "distance_km": 106.2,
      "angle_deg": 0.2881
    },
    {
      "name": "烏帽子ヶ岳",
      "lat": 36.487501,
      "lon": 138.874864,
      "elev": 1363,
      "azimuth": 321.61,
      "distance_km": 105.6,
      "angle_deg": 0.3011
    },
    {
      "name": "相馬山 そうまさん",
      "lat": 36.474488,
      "lon": 138.90079,
      "elev": 1411,
      "azimuth": 322.11,
      "distance_km": 103.0,
      "angle_deg": 0.3557
    },
    {
      "name": "孫岳 まごだけ",
      "lat": 36.479805,
      "lon": 138.906147,
      "elev": 1272,
      "azimuth": 322.52,
      "distance_km": 103.2,
      "angle_deg": 0.2767
    },
    {
      "name": "二ツ岳雄岳",
      "lat": 36.4821,
      "lon": 138.905366,
      "elev": 1340,
      "azimuth": 322.58,
      "distance_km": 103.4,
      "angle_deg": 0.3118
    },
    {
      "name": "二ツ岳雌岳",
      "lat": 36.480724,
      "lon": 138.909136,
      "elev": 1306,
      "azimuth": 322.67,
      "distance_km": 103.1,
      "angle_deg": 0.2965
    },
    {
      "name": "十二ケ岳",
      "lat": 36.58709,
      "lon": 138.923186,
      "elev": 1201,
      "azimuth": 326.88,
      "distance_km": 112.0,
      "angle_deg": 0.1526
    },
    {
      "name": "小野子山",
      "lat": 36.580741,
      "lon": 138.937003,
      "elev": 1208,
      "azimuth": 327.22,
      "distance_km": 110.7,
      "angle_deg": 0.1682
    },
    {
      "name": "子持山",
      "lat": 36.59194,
      "lon": 138.997614,
      "elev": 1296,
      "azimuth": 329.96,
      "distance_km": 108.9,
      "angle_deg": 0.2314
    },
    {
      "name": "荒山",
      "lat": 36.52586,
      "lon": 139.165504,
      "elev": 1572,
      "azimuth": 335.53,
      "distance_km": 95.4,
      "angle_deg": 0.5424
    },
    {
      "name": "鈴ヶ岳",
      "lat": 36.5545,
      "lon": 139.151995,
      "elev": 1565,
      "azimuth": 335.67,
      "distance_km": 98.8,
      "angle_deg": 0.4937
    },
    {
      "name": "出張山",
      "lat": 36.557464,
      "lon": 139.163804,
      "elev": 1475,
      "azimuth": 336.31,
      "distance_km": 98.7,
      "angle_deg": 0.4431
    },
    {
      "name": "地蔵岳",
      "lat": 36.541034,
      "lon": 139.177352,
      "elev": 1674,
      "azimuth": 336.52,
      "distance_km": 96.5,
      "angle_deg": 0.5882
    },
    {
      "name": "迦葉山",
      "lat": 36.759052,
      "lon": 139.062345,
      "elev": 1322,
      "azimuth": 336.68,
      "distance_km": 122.8,
      "angle_deg": 0.1145
    },
    {
      "name": "薬師岳",
      "lat": 36.561644,
      "lon": 139.169977,
      "elev": 1528,
      "azimuth": 336.71,
      "distance_km": 98.9,
      "angle_deg": 0.4714
    },
    {
      "name": "長七郎山",
      "lat": 36.532747,
      "lon": 139.189676,
      "elev": 1579,
      "azimuth": 336.91,
      "distance_km": 95.3,
      "angle_deg": 0.5491
    },
    {
      "name": "足柄山",
      "lat": 36.561601,
      "lon": 139.178274,
      "elev": 1475,
      "azimuth": 337.1,
      "distance_km": 98.6,
      "angle_deg": 0.4443
    },
    {
      "name": "黒檜山",
      "lat": 36.560373,
      "lon": 139.193287,
      "elev": 1828,
      "azimuth": 337.79,
      "distance_km": 98.0,
      "angle_deg": 0.6588
    },
    {
      "name": "剣ヶ峰山",
      "lat": 36.794617,
      "lon": 139.12144,
      "elev": 2020,
      "azimuth": 339.64,
      "distance_km": 124.5,
      "angle_deg": 0.4212
    }
  ]
}